{
"type": "FeatureCollection",
"crs": { "type": "name", "properties": { "name": "urn:ogc:def:crs:OGC:1.3:CRS84" } },
"features": [
{ "type": "Feature", "properties": { "STATION": "Ferntree Gully", "TYPE": "Locker", "CAPACITY": null }, "geometry": { "type": "Point", "coordinates": [ 145.29507872500005, -37.881763624999962 ] } },
{ "type": "Feature", "properties": { "STATION": "Ferntree Gully", "TYPE": "Locker", "CAPACITY": null }, "geometry": { "type": "Point", "coordinates": [ 145.29507872500005, -37.881763624999962 ] } },
{ "type": "Feature", "properties": { "STATION": "Ferntree Gully", "TYPE": "Locker", "CAPACITY": null }, "geometry": { "type": "Point", "coordinates": [ 145.29507872500005, -37.881763624999962 ] } },
{ "type": "Feature", "properties": { "STATION": "Ferntree Gully", "TYPE": "Locker", "CAPACITY": null }, "geometry": { "type": "Point", "coordinates": [ 145.29507872500005, -37.881763624999962 ] } },
{ "type": "Feature", "properties": { "STATION": "Ferntree Gully", "TYPE": "Locker", "CAPACITY": null }, "geometry": { "type": "Point", "coordinates": [ 145.29507872500005, -37.881763624999962 ] } },
{ "type": "Feature", "properties": { "STATION": "Ferntree Gully", "TYPE": "Locker", "CAPACITY": null }, "geometry": { "type": "Point", "coordinates": [ 145.29507872500005, -37.881763624999962 ] } },
{ "type": "Feature", "properties": { "STATION": "Ferntree Gully", "TYPE": "Locker", "CAPACITY": null }, "geometry": { "type": "Point", "coordinates": [ 145.29507872500005, -37.881763624999962 ] } },
{ "type": "Feature", "properties": { "STATION": "Ferntree Gully", "TYPE": "Locker", "CAPACITY": null }, "geometry": { "type": "Point", "coordinates": [ 145.29507872500005, -37.881763624999962 ] } },
{ "type": "Feature", "properties": { "STATION": "Ferntree Gully", "TYPE": "Locker", "CAPACITY": null }, "geometry": { "type": "Point", "coordinates": [ 145.29507872500005, -37.881763624999962 ] } },
{ "type": "Feature", "properties": { "STATION": "Ferntree Gully", "TYPE": "Locker", "CAPACITY": null }, "geometry": { "type": "Point", "coordinates": [ 145.29507872500005, -37.881763624999962 ] } },
{ "type": "Feature", "properties": { "STATION": "Springvale", "TYPE": "Hoops", "CAPACITY": null }, "geometry": { "type": "Point", "coordinates": [ 145.15298941000003, -37.948890748 ] } },
{ "type": "Feature", "properties": { "STATION": "Springvale", "TYPE": "Hoops", "CAPACITY": null }, "geometry": { "type": "Point", "coordinates": [ 145.15313406000007, -37.949260176999985 ] } },
{ "type": "Feature", "properties": { "STATION": "Springvale", "TYPE": "Parkiteer", "CAPACITY": null }, "geometry": { "type": "Point", "coordinates": [ 145.15327185600006, -37.949371181 ] } },
{ "type": "Feature", "properties": { "STATION": "Sandown Park", "TYPE": "Locker", "CAPACITY": null }, "geometry": { "type": "Point", "coordinates": [ 145.16358785500006, -37.956871705999959 ] } },
{ "type": "Feature", "properties": { "STATION": "Sandown Park", "TYPE": "Locker", "CAPACITY": null }, "geometry": { "type": "Point", "coordinates": [ 145.16358785500006, -37.956871705999959 ] } },
{ "type": "Feature", "properties": { "STATION": "Sandown Park", "TYPE": "Locker", "CAPACITY": null }, "geometry": { "type": "Point", "coordinates": [ 145.16358785500006, -37.956871705999959 ] } },
{ "type": "Feature", "properties": { "STATION": "Sandown Park", "TYPE": "Locker", "CAPACITY": null }, "geometry": { "type": "Point", "coordinates": [ 145.16358785500006, -37.956871705999959 ] } },
{ "type": "Feature", "properties": { "STATION": "Sandown Park", "TYPE": "Locker", "CAPACITY": null }, "geometry": { "type": "Point", "coordinates": [ 145.16358785500006, -37.956871705999959 ] } },
{ "type": "Feature", "properties": { "STATION": "Sandown Park", "TYPE": "Locker", "CAPACITY": null }, "geometry": { "type": "Point", "coordinates": [ 145.16358785500006, -37.956871705999959 ] } },
{ "type": "Feature", "properties": { "STATION": "Sandown Park", "TYPE": "Locker", "CAPACITY": null }, "geometry": { "type": "Point", "coordinates": [ 145.16358785500006, -37.956871705999959 ] } },
{ "type": "Feature", "properties": { "STATION": "Sandown Park", "TYPE": "Locker", "CAPACITY": null }, "geometry": { "type": "Point", "coordinates": [ 145.16358785500006, -37.956871705999959 ] } },
{ "type": "Feature", "properties": { "STATION": "Noble Park", "TYPE": "Hoops", "CAPACITY": null }, "geometry": { "type": "Point", "coordinates": [ 145.17671251900003, -37.967266850999977 ] } },
{ "type": "Feature", "properties": { "STATION": "Noble Park", "TYPE": "Locker", "CAPACITY": null }, "geometry": { "type": "Point", "coordinates": [ 145.17687072199999, -37.967382919999977 ] } },
{ "type": "Feature", "properties": { "STATION": "Noble Park", "TYPE": "Locker", "CAPACITY": null }, "geometry": { "type": "Point", "coordinates": [ 145.17687072199999, -37.967382919999977 ] } },
{ "type": "Feature", "properties": { "STATION": "Noble Park", "TYPE": "Locker", "CAPACITY": null }, "geometry": { "type": "Point", "coordinates": [ 145.17687072199999, -37.967382919999977 ] } },
{ "type": "Feature", "properties": { "STATION": "Noble Park", "TYPE": "Locker", "CAPACITY": null }, "geometry": { "type": "Point", "coordinates": [ 145.17687072199999, -37.967382919999977 ] } },
{ "type": "Feature", "properties": { "STATION": "Noble Park", "TYPE": "Locker", "CAPACITY": null }, "geometry": { "type": "Point", "coordinates": [ 145.17687072199999, -37.967382919999977 ] } },
{ "type": "Feature", "properties": { "STATION": "Noble Park", "TYPE": "Locker", "CAPACITY": null }, "geometry": { "type": "Point", "coordinates": [ 145.17687072199999, -37.967382919999977 ] } },
{ "type": "Feature", "properties": { "STATION": "Noble Park", "TYPE": "Locker", "CAPACITY": null }, "geometry": { "type": "Point", "coordinates": [ 145.17687072199999, -37.967382919999977 ] } },
{ "type": "Feature", "properties": { "STATION": "Noble Park", "TYPE": "Locker", "CAPACITY": null }, "geometry": { "type": "Point", "coordinates": [ 145.17687072199999, -37.967382919999977 ] } },
{ "type": "Feature", "properties": { "STATION": "Noble Park", "TYPE": "Locker", "CAPACITY": null }, "geometry": { "type": "Point", "coordinates": [ 145.17687072199999, -37.967382919999977 ] } },
{ "type": "Feature", "properties": { "STATION": "Noble Park", "TYPE": "Locker", "CAPACITY": null }, "geometry": { "type": "Point", "coordinates": [ 145.17687072199999, -37.967382919999977 ] } },
{ "type": "Feature", "properties": { "STATION": "Noble Park", "TYPE": "Locker", "CAPACITY": null }, "geometry": { "type": "Point", "coordinates": [ 145.17687072199999, -37.967382919999977 ] } },
{ "type": "Feature", "properties": { "STATION": "Noble Park", "TYPE": "Locker", "CAPACITY": null }, "geometry": { "type": "Point", "coordinates": [ 145.17687072199999, -37.967382919999977 ] } },
{ "type": "Feature", "properties": { "STATION": "Noble Park", "TYPE": "Locker", "CAPACITY": null }, "geometry": { "type": "Point", "coordinates": [ 145.17687072199999, -37.967382919999977 ] } },
{ "type": "Feature", "properties": { "STATION": "Noble Park", "TYPE": "Locker", "CAPACITY": null }, "geometry": { "type": "Point", "coordinates": [ 145.17687072199999, -37.967382919999977 ] } },
{ "type": "Feature", "properties": { "STATION": "Noble Park", "TYPE": "Locker", "CAPACITY": null }, "geometry": { "type": "Point", "coordinates": [ 145.17687072199999, -37.967382919999977 ] } },
{ "type": "Feature", "properties": { "STATION": "Noble Park", "TYPE": "Locker", "CAPACITY": null }, "geometry": { "type": "Point", "coordinates": [ 145.17687072199999, -37.967382919999977 ] } },
{ "type": "Feature", "properties": { "STATION": "Noble Park", "TYPE": "Locker", "CAPACITY": null }, "geometry": { "type": "Point", "coordinates": [ 145.17687072199999, -37.967382919999977 ] } },
{ "type": "Feature", "properties": { "STATION": "Noble Park", "TYPE": "Locker", "CAPACITY": null }, "geometry": { "type": "Point", "coordinates": [ 145.17687072199999, -37.967382919999977 ] } },
{ "type": "Feature", "properties": { "STATION": "Narre Warren", "TYPE": "Parkiteer", "CAPACITY": null }, "geometry": { "type": "Point", "coordinates": [ 145.303393325, -38.02725034499997 ] } },
{ "type": "Feature", "properties": { "STATION": "Narre Warren", "TYPE": "Locker", "CAPACITY": null }, "geometry": { "type": "Point", "coordinates": [ 145.30362228900003, -38.027660724999976 ] } },
{ "type": "Feature", "properties": { "STATION": "Narre Warren", "TYPE": "Locker", "CAPACITY": null }, "geometry": { "type": "Point", "coordinates": [ 145.30362228900003, -38.027660724999976 ] } },
{ "type": "Feature", "properties": { "STATION": "Narre Warren", "TYPE": "Locker", "CAPACITY": null }, "geometry": { "type": "Point", "coordinates": [ 145.30362228900003, -38.027660724999976 ] } },
{ "type": "Feature", "properties": { "STATION": "Narre Warren", "TYPE": "Locker", "CAPACITY": null }, "geometry": { "type": "Point", "coordinates": [ 145.30362228900003, -38.027660724999976 ] } },
{ "type": "Feature", "properties": { "STATION": "Narre Warren", "TYPE": "Locker", "CAPACITY": null }, "geometry": { "type": "Point", "coordinates": [ 145.30362228900003, -38.027660724999976 ] } },
{ "type": "Feature", "properties": { "STATION": "Narre Warren", "TYPE": "Locker", "CAPACITY": null }, "geometry": { "type": "Point", "coordinates": [ 145.30362228900003, -38.027660724999976 ] } },
{ "type": "Feature", "properties": { "STATION": "Narre Warren", "TYPE": "Locker", "CAPACITY": null }, "geometry": { "type": "Point", "coordinates": [ 145.30362228900003, -38.027660724999976 ] } },
{ "type": "Feature", "properties": { "STATION": "Hallam", "TYPE": "Parkiteer", "CAPACITY": null }, "geometry": { "type": "Point", "coordinates": [ 145.27075197400009, -38.017503175 ] } },
{ "type": "Feature", "properties": { "STATION": "Lynbrook", "TYPE": "Cages", "CAPACITY": null }, "geometry": { "type": "Point", "coordinates": [ 145.24938781100002, -38.057678108 ] } },
{ "type": "Feature", "properties": { "STATION": "Cranbourne", "TYPE": "Locker", "CAPACITY": null }, "geometry": { "type": "Point", "coordinates": [ 145.28142562900007, -38.100200429999973 ] } },
{ "type": "Feature", "properties": { "STATION": "Cranbourne", "TYPE": "Locker", "CAPACITY": null }, "geometry": { "type": "Point", "coordinates": [ 145.28142562900007, -38.100200429999973 ] } },
{ "type": "Feature", "properties": { "STATION": "Cranbourne", "TYPE": "Locker", "CAPACITY": null }, "geometry": { "type": "Point", "coordinates": [ 145.28142562900007, -38.100200429999973 ] } },
{ "type": "Feature", "properties": { "STATION": "Cranbourne", "TYPE": "Locker", "CAPACITY": null }, "geometry": { "type": "Point", "coordinates": [ 145.28142562900007, -38.100200429999973 ] } },
{ "type": "Feature", "properties": { "STATION": "Cranbourne", "TYPE": "Locker", "CAPACITY": null }, "geometry": { "type": "Point", "coordinates": [ 145.28140710100001, -38.100248722 ] } },
{ "type": "Feature", "properties": { "STATION": "Cranbourne", "TYPE": "Locker", "CAPACITY": null }, "geometry": { "type": "Point", "coordinates": [ 145.28140710100001, -38.100248722 ] } },
{ "type": "Feature", "properties": { "STATION": "Cranbourne", "TYPE": "Locker", "CAPACITY": null }, "geometry": { "type": "Point", "coordinates": [ 145.28140710100001, -38.100248722 ] } },
{ "type": "Feature", "properties": { "STATION": "Cranbourne", "TYPE": "Locker", "CAPACITY": null }, "geometry": { "type": "Point", "coordinates": [ 145.28140710100001, -38.100248722 ] } },
{ "type": "Feature", "properties": { "STATION": "Cranbourne", "TYPE": "Locker", "CAPACITY": null }, "geometry": { "type": "Point", "coordinates": [ 145.28140710100001, -38.100248722 ] } },
{ "type": "Feature", "properties": { "STATION": "Cranbourne", "TYPE": "Locker", "CAPACITY": null }, "geometry": { "type": "Point", "coordinates": [ 145.28140710100001, -38.100248722 ] } },
{ "type": "Feature", "properties": { "STATION": "Cranbourne", "TYPE": "Locker", "CAPACITY": null }, "geometry": { "type": "Point", "coordinates": [ 145.28135278800005, -38.100154675 ] } },
{ "type": "Feature", "properties": { "STATION": "Cranbourne", "TYPE": "Locker", "CAPACITY": null }, "geometry": { "type": "Point", "coordinates": [ 145.28135278800005, -38.100154675 ] } },
{ "type": "Feature", "properties": { "STATION": "Cranbourne", "TYPE": "Locker", "CAPACITY": null }, "geometry": { "type": "Point", "coordinates": [ 145.28135278800005, -38.100154675 ] } },
{ "type": "Feature", "properties": { "STATION": "Cranbourne", "TYPE": "Locker", "CAPACITY": null }, "geometry": { "type": "Point", "coordinates": [ 145.28135278800005, -38.100154675 ] } },
{ "type": "Feature", "properties": { "STATION": "Cranbourne", "TYPE": "Locker", "CAPACITY": null }, "geometry": { "type": "Point", "coordinates": [ 145.28139031500007, -38.100178468999957 ] } },
{ "type": "Feature", "properties": { "STATION": "Cranbourne", "TYPE": "Locker", "CAPACITY": null }, "geometry": { "type": "Point", "coordinates": [ 145.28139031500007, -38.100178468999957 ] } },
{ "type": "Feature", "properties": { "STATION": "Cranbourne", "TYPE": "Locker", "CAPACITY": null }, "geometry": { "type": "Point", "coordinates": [ 145.28139031500007, -38.100178468999957 ] } },
{ "type": "Feature", "properties": { "STATION": "Cranbourne", "TYPE": "Locker", "CAPACITY": null }, "geometry": { "type": "Point", "coordinates": [ 145.28139031500007, -38.100178468999957 ] } },
{ "type": "Feature", "properties": { "STATION": "Cranbourne", "TYPE": "Parkiteer", "CAPACITY": null }, "geometry": { "type": "Point", "coordinates": [ 145.28105222800002, -38.100600864 ] } },
{ "type": "Feature", "properties": { "STATION": "Cranbourne", "TYPE": "Other", "CAPACITY": "Unknown" }, "geometry": { "type": "Point", "coordinates": [ 145.28105212200001, -38.10060942199999 ] } },
{ "type": "Feature", "properties": { "STATION": "Carrum", "TYPE": "Locker", "CAPACITY": null }, "geometry": { "type": "Point", "coordinates": [ 145.12257465800008, -38.075275345999962 ] } },
{ "type": "Feature", "properties": { "STATION": "Carrum", "TYPE": "Locker", "CAPACITY": null }, "geometry": { "type": "Point", "coordinates": [ 145.12257465800008, -38.075275345999962 ] } },
{ "type": "Feature", "properties": { "STATION": "Carrum", "TYPE": "Locker", "CAPACITY": null }, "geometry": { "type": "Point", "coordinates": [ 145.12257465800008, -38.075275345999962 ] } },
{ "type": "Feature", "properties": { "STATION": "Carrum", "TYPE": "Locker", "CAPACITY": null }, "geometry": { "type": "Point", "coordinates": [ 145.12257465800008, -38.075275345999962 ] } },
{ "type": "Feature", "properties": { "STATION": "Carrum", "TYPE": "Locker", "CAPACITY": null }, "geometry": { "type": "Point", "coordinates": [ 145.12266875, -38.075304959999983 ] } },
{ "type": "Feature", "properties": { "STATION": "Carrum", "TYPE": "Locker", "CAPACITY": null }, "geometry": { "type": "Point", "coordinates": [ 145.12266875, -38.075304959999983 ] } },
{ "type": "Feature", "properties": { "STATION": "Carrum", "TYPE": "Locker", "CAPACITY": null }, "geometry": { "type": "Point", "coordinates": [ 145.12266875, -38.075304959999983 ] } },
{ "type": "Feature", "properties": { "STATION": "Carrum", "TYPE": "Locker", "CAPACITY": null }, "geometry": { "type": "Point", "coordinates": [ 145.12266875, -38.075304959999983 ] } },
{ "type": "Feature", "properties": { "STATION": "Carrum", "TYPE": "Locker", "CAPACITY": null }, "geometry": { "type": "Point", "coordinates": [ 145.12266875, -38.075304959999983 ] } },
{ "type": "Feature", "properties": { "STATION": "Carrum", "TYPE": "Locker", "CAPACITY": null }, "geometry": { "type": "Point", "coordinates": [ 145.12266875, -38.075304959999983 ] } },
{ "type": "Feature", "properties": { "STATION": "Carrum", "TYPE": "Hoops", "CAPACITY": null }, "geometry": { "type": "Point", "coordinates": [ 145.12278151400005, -38.076527045999967 ] } },
{ "type": "Feature", "properties": { "STATION": "Carrum", "TYPE": "Hoops", "CAPACITY": null }, "geometry": { "type": "Point", "coordinates": [ 145.12278151400005, -38.076527045999967 ] } },
{ "type": "Feature", "properties": { "STATION": "Seaford", "TYPE": "Hoops", "CAPACITY": null }, "geometry": { "type": "Point", "coordinates": [ 145.12821899800008, -38.104396497999971 ] } },
{ "type": "Feature", "properties": { "STATION": "Seaford", "TYPE": "Parkiteer", "CAPACITY": null }, "geometry": { "type": "Point", "coordinates": [ 145.12805457100001, -38.10383085899997 ] } },
{ "type": "Feature", "properties": { "STATION": "Seaford", "TYPE": "Locker", "CAPACITY": null }, "geometry": { "type": "Point", "coordinates": [ 145.12811588099999, -38.103849405 ] } },
{ "type": "Feature", "properties": { "STATION": "Seaford", "TYPE": "Locker", "CAPACITY": null }, "geometry": { "type": "Point", "coordinates": [ 145.12811588099999, -38.103849405 ] } },
{ "type": "Feature", "properties": { "STATION": "Seaford", "TYPE": "Locker", "CAPACITY": null }, "geometry": { "type": "Point", "coordinates": [ 145.12811588099999, -38.103849405 ] } },
{ "type": "Feature", "properties": { "STATION": "Seaford", "TYPE": "Locker", "CAPACITY": null }, "geometry": { "type": "Point", "coordinates": [ 145.12811588099999, -38.103849405 ] } },
{ "type": "Feature", "properties": { "STATION": "Seaford", "TYPE": "Locker", "CAPACITY": null }, "geometry": { "type": "Point", "coordinates": [ 145.12811588099999, -38.103849405 ] } },
{ "type": "Feature", "properties": { "STATION": "Seaford", "TYPE": "Locker", "CAPACITY": null }, "geometry": { "type": "Point", "coordinates": [ 145.12811588099999, -38.103849405 ] } },
{ "type": "Feature", "properties": { "STATION": "Seaford", "TYPE": "Locker", "CAPACITY": null }, "geometry": { "type": "Point", "coordinates": [ 145.12811588099999, -38.103849405 ] } },
{ "type": "Feature", "properties": { "STATION": "Seaford", "TYPE": "Locker", "CAPACITY": null }, "geometry": { "type": "Point", "coordinates": [ 145.12811588099999, -38.103849405 ] } },
{ "type": "Feature", "properties": { "STATION": "Mentone", "TYPE": "Locker", "CAPACITY": null }, "geometry": { "type": "Point", "coordinates": [ 145.06533555, -37.981874217999973 ] } },
{ "type": "Feature", "properties": { "STATION": "Mentone", "TYPE": "Locker", "CAPACITY": null }, "geometry": { "type": "Point", "coordinates": [ 145.06533555, -37.981874217999973 ] } },
{ "type": "Feature", "properties": { "STATION": "Mentone", "TYPE": "Locker", "CAPACITY": null }, "geometry": { "type": "Point", "coordinates": [ 145.06533555, -37.981874217999973 ] } },
{ "type": "Feature", "properties": { "STATION": "Mentone", "TYPE": "Locker", "CAPACITY": null }, "geometry": { "type": "Point", "coordinates": [ 145.06533555, -37.981874217999973 ] } },
{ "type": "Feature", "properties": { "STATION": "Mentone", "TYPE": "Locker", "CAPACITY": null }, "geometry": { "type": "Point", "coordinates": [ 145.06533555, -37.981874217999973 ] } },
{ "type": "Feature", "properties": { "STATION": "Mentone", "TYPE": "Locker", "CAPACITY": null }, "geometry": { "type": "Point", "coordinates": [ 145.06533555, -37.981874217999973 ] } },
{ "type": "Feature", "properties": { "STATION": "Mentone", "TYPE": "Locker", "CAPACITY": null }, "geometry": { "type": "Point", "coordinates": [ 145.06533555, -37.981874217999973 ] } },
{ "type": "Feature", "properties": { "STATION": "Mentone", "TYPE": "Locker", "CAPACITY": null }, "geometry": { "type": "Point", "coordinates": [ 145.06533555, -37.981874217999973 ] } },
{ "type": "Feature", "properties": { "STATION": "Mentone", "TYPE": "Hoops", "CAPACITY": null }, "geometry": { "type": "Point", "coordinates": [ 145.06529308500001, -37.982054076999987 ] } },
{ "type": "Feature", "properties": { "STATION": "Mordialloc", "TYPE": "Locker", "CAPACITY": null }, "geometry": { "type": "Point", "coordinates": [ 145.08780555600003, -38.00641178799998 ] } },
{ "type": "Feature", "properties": { "STATION": "Mordialloc", "TYPE": "Locker", "CAPACITY": null }, "geometry": { "type": "Point", "coordinates": [ 145.08780555600003, -38.00641178799998 ] } },
{ "type": "Feature", "properties": { "STATION": "Mordialloc", "TYPE": "Locker", "CAPACITY": null }, "geometry": { "type": "Point", "coordinates": [ 145.08780555600003, -38.00641178799998 ] } },
{ "type": "Feature", "properties": { "STATION": "Mordialloc", "TYPE": "Locker", "CAPACITY": null }, "geometry": { "type": "Point", "coordinates": [ 145.08780555600003, -38.00641178799998 ] } },
{ "type": "Feature", "properties": { "STATION": "Mordialloc", "TYPE": "Locker", "CAPACITY": null }, "geometry": { "type": "Point", "coordinates": [ 145.08780555600003, -38.00641178799998 ] } },
{ "type": "Feature", "properties": { "STATION": "Mordialloc", "TYPE": "Locker", "CAPACITY": null }, "geometry": { "type": "Point", "coordinates": [ 145.08780555600003, -38.00641178799998 ] } },
{ "type": "Feature", "properties": { "STATION": "Mordialloc", "TYPE": "Locker", "CAPACITY": null }, "geometry": { "type": "Point", "coordinates": [ 145.08778453299999, -38.006425681999985 ] } },
{ "type": "Feature", "properties": { "STATION": "Mordialloc", "TYPE": "Locker", "CAPACITY": null }, "geometry": { "type": "Point", "coordinates": [ 145.08778453299999, -38.006425681999985 ] } },
{ "type": "Feature", "properties": { "STATION": "Mordialloc", "TYPE": "Locker", "CAPACITY": null }, "geometry": { "type": "Point", "coordinates": [ 145.08778453299999, -38.006425681999985 ] } },
{ "type": "Feature", "properties": { "STATION": "Mordialloc", "TYPE": "Locker", "CAPACITY": null }, "geometry": { "type": "Point", "coordinates": [ 145.08778453299999, -38.006425681999985 ] } },
{ "type": "Feature", "properties": { "STATION": "Mordialloc", "TYPE": "Locker", "CAPACITY": null }, "geometry": { "type": "Point", "coordinates": [ 145.08778453299999, -38.006425681999985 ] } },
{ "type": "Feature", "properties": { "STATION": "Mordialloc", "TYPE": "Locker", "CAPACITY": null }, "geometry": { "type": "Point", "coordinates": [ 145.08778453299999, -38.006425681999985 ] } },
{ "type": "Feature", "properties": { "STATION": "Mordialloc", "TYPE": "Locker", "CAPACITY": null }, "geometry": { "type": "Point", "coordinates": [ 145.08778453299999, -38.006425681999985 ] } },
{ "type": "Feature", "properties": { "STATION": "Mordialloc", "TYPE": "Locker", "CAPACITY": null }, "geometry": { "type": "Point", "coordinates": [ 145.08778453299999, -38.006425681999985 ] } },
{ "type": "Feature", "properties": { "STATION": "Mordialloc", "TYPE": "Locker", "CAPACITY": null }, "geometry": { "type": "Point", "coordinates": [ 145.08778453299999, -38.006425681999985 ] } },
{ "type": "Feature", "properties": { "STATION": "Mordialloc", "TYPE": "Locker", "CAPACITY": null }, "geometry": { "type": "Point", "coordinates": [ 145.08778453299999, -38.006425681999985 ] } },
{ "type": "Feature", "properties": { "STATION": "Mordialloc", "TYPE": "Locker", "CAPACITY": null }, "geometry": { "type": "Point", "coordinates": [ 145.08757211800003, -38.006833344999961 ] } },
{ "type": "Feature", "properties": { "STATION": "Mordialloc", "TYPE": "Locker", "CAPACITY": null }, "geometry": { "type": "Point", "coordinates": [ 145.08757211800003, -38.006833344999961 ] } },
{ "type": "Feature", "properties": { "STATION": "Mordialloc", "TYPE": "Locker", "CAPACITY": null }, "geometry": { "type": "Point", "coordinates": [ 145.08757211800003, -38.006833344999961 ] } },
{ "type": "Feature", "properties": { "STATION": "Mordialloc", "TYPE": "Locker", "CAPACITY": null }, "geometry": { "type": "Point", "coordinates": [ 145.08757211800003, -38.006833344999961 ] } },
{ "type": "Feature", "properties": { "STATION": "Chelsea", "TYPE": "Other", "CAPACITY": null }, "geometry": { "type": "Point", "coordinates": [ 145.11609120500009, -38.05184134699999 ] } },
{ "type": "Feature", "properties": { "STATION": "Chelsea", "TYPE": "Other", "CAPACITY": null }, "geometry": { "type": "Point", "coordinates": [ 145.11611050800002, -38.05188012799999 ] } },
{ "type": "Feature", "properties": { "STATION": "Chelsea", "TYPE": "Locker", "CAPACITY": null }, "geometry": { "type": "Point", "coordinates": [ 145.11623048400008, -38.052145137999958 ] } },
{ "type": "Feature", "properties": { "STATION": "Chelsea", "TYPE": "Locker", "CAPACITY": null }, "geometry": { "type": "Point", "coordinates": [ 145.11623048400008, -38.052145137999958 ] } },
{ "type": "Feature", "properties": { "STATION": "Chelsea", "TYPE": "Locker", "CAPACITY": null }, "geometry": { "type": "Point", "coordinates": [ 145.11623048400008, -38.052145137999958 ] } },
{ "type": "Feature", "properties": { "STATION": "Chelsea", "TYPE": "Locker", "CAPACITY": null }, "geometry": { "type": "Point", "coordinates": [ 145.11623048400008, -38.052145137999958 ] } },
{ "type": "Feature", "properties": { "STATION": "Chelsea", "TYPE": "Locker", "CAPACITY": null }, "geometry": { "type": "Point", "coordinates": [ 145.11623048400008, -38.052145137999958 ] } },
{ "type": "Feature", "properties": { "STATION": "Chelsea", "TYPE": "Locker", "CAPACITY": null }, "geometry": { "type": "Point", "coordinates": [ 145.11623048400008, -38.052145137999958 ] } },
{ "type": "Feature", "properties": { "STATION": "Belgrave", "TYPE": "Locker", "CAPACITY": null }, "geometry": { "type": "Point", "coordinates": [ 145.35476913600007, -37.90949640299999 ] } },
{ "type": "Feature", "properties": { "STATION": "Belgrave", "TYPE": "Locker", "CAPACITY": null }, "geometry": { "type": "Point", "coordinates": [ 145.35476913600007, -37.90949640299999 ] } },
{ "type": "Feature", "properties": { "STATION": "Belgrave", "TYPE": "Locker", "CAPACITY": null }, "geometry": { "type": "Point", "coordinates": [ 145.35476913600007, -37.90949640299999 ] } },
{ "type": "Feature", "properties": { "STATION": "Belgrave", "TYPE": "Locker", "CAPACITY": null }, "geometry": { "type": "Point", "coordinates": [ 145.354835611, -37.909531211 ] } },
{ "type": "Feature", "properties": { "STATION": "Belgrave", "TYPE": "Parkiteer", "CAPACITY": null }, "geometry": { "type": "Point", "coordinates": [ 145.354528577, -37.909954275999951 ] } },
{ "type": "Feature", "properties": { "STATION": "Berwick", "TYPE": "Parkiteer", "CAPACITY": null }, "geometry": { "type": "Point", "coordinates": [ 145.34439763500006, -38.039285877 ] } },
{ "type": "Feature", "properties": { "STATION": "Berwick", "TYPE": "Locker", "CAPACITY": null }, "geometry": { "type": "Point", "coordinates": [ 145.34502753600009, -38.03941548399996 ] } },
{ "type": "Feature", "properties": { "STATION": "Berwick", "TYPE": "Locker", "CAPACITY": null }, "geometry": { "type": "Point", "coordinates": [ 145.34502753600009, -38.03941548399996 ] } },
{ "type": "Feature", "properties": { "STATION": "Berwick", "TYPE": "Locker", "CAPACITY": null }, "geometry": { "type": "Point", "coordinates": [ 145.34502753600009, -38.03941548399996 ] } },
{ "type": "Feature", "properties": { "STATION": "Berwick", "TYPE": "Locker", "CAPACITY": null }, "geometry": { "type": "Point", "coordinates": [ 145.34502753600009, -38.03941548399996 ] } },
{ "type": "Feature", "properties": { "STATION": "Berwick", "TYPE": "Locker", "CAPACITY": null }, "geometry": { "type": "Point", "coordinates": [ 145.34502753600009, -38.03941548399996 ] } },
{ "type": "Feature", "properties": { "STATION": "Berwick", "TYPE": "Locker", "CAPACITY": null }, "geometry": { "type": "Point", "coordinates": [ 145.34502753600009, -38.03941548399996 ] } },
{ "type": "Feature", "properties": { "STATION": "Berwick", "TYPE": "Locker", "CAPACITY": null }, "geometry": { "type": "Point", "coordinates": [ 145.34502753600009, -38.03941548399996 ] } },
{ "type": "Feature", "properties": { "STATION": "Berwick", "TYPE": "Locker", "CAPACITY": null }, "geometry": { "type": "Point", "coordinates": [ 145.34502753600009, -38.03941548399996 ] } },
{ "type": "Feature", "properties": { "STATION": "Berwick", "TYPE": "Locker", "CAPACITY": null }, "geometry": { "type": "Point", "coordinates": [ 145.34502753600009, -38.03941548399996 ] } },
{ "type": "Feature", "properties": { "STATION": "Berwick", "TYPE": "Locker", "CAPACITY": null }, "geometry": { "type": "Point", "coordinates": [ 145.34502753600009, -38.03941548399996 ] } },
{ "type": "Feature", "properties": { "STATION": "Berwick", "TYPE": "Locker", "CAPACITY": null }, "geometry": { "type": "Point", "coordinates": [ 145.34502753600009, -38.03941548399996 ] } },
{ "type": "Feature", "properties": { "STATION": "Berwick", "TYPE": "Locker", "CAPACITY": null }, "geometry": { "type": "Point", "coordinates": [ 145.34502753600009, -38.03941548399996 ] } },
{ "type": "Feature", "properties": { "STATION": "Berwick", "TYPE": "Locker", "CAPACITY": null }, "geometry": { "type": "Point", "coordinates": [ 145.34502753600009, -38.03941548399996 ] } },
{ "type": "Feature", "properties": { "STATION": "Berwick", "TYPE": "Locker", "CAPACITY": null }, "geometry": { "type": "Point", "coordinates": [ 145.34502753600009, -38.03941548399996 ] } },
{ "type": "Feature", "properties": { "STATION": "Berwick", "TYPE": "Locker", "CAPACITY": null }, "geometry": { "type": "Point", "coordinates": [ 145.34502753600009, -38.03941548399996 ] } },
{ "type": "Feature", "properties": { "STATION": "Cardinia Road", "TYPE": "Cages", "CAPACITY": null }, "geometry": { "type": "Point", "coordinates": [ 145.43817464800009, -38.071795941 ] } },
{ "type": "Feature", "properties": { "STATION": "Pakenham", "TYPE": "Parkiteer", "CAPACITY": null }, "geometry": { "type": "Point", "coordinates": [ 145.48519574099998, -38.08012774299999 ] } },
{ "type": "Feature", "properties": { "STATION": "Pakenham", "TYPE": "Hoops", "CAPACITY": null }, "geometry": { "type": "Point", "coordinates": [ 145.485345478, -38.080147243 ] } },
{ "type": "Feature", "properties": { "STATION": "Frankston", "TYPE": "Parkiteer", "CAPACITY": null }, "geometry": { "type": "Point", "coordinates": [ 145.12558586900002, -38.143580117 ] } },
{ "type": "Feature", "properties": { "STATION": "Frankston", "TYPE": "Hoops", "CAPACITY": null }, "geometry": { "type": "Point", "coordinates": [ 145.12616858900003, -38.142616009999983 ] } },
{ "type": "Feature", "properties": { "STATION": "Frankston", "TYPE": "Locker", "CAPACITY": null }, "geometry": { "type": "Point", "coordinates": [ 145.12610616699999, -38.14262492499995 ] } },
{ "type": "Feature", "properties": { "STATION": "Frankston", "TYPE": "Locker", "CAPACITY": null }, "geometry": { "type": "Point", "coordinates": [ 145.12610616699999, -38.14262492499995 ] } },
{ "type": "Feature", "properties": { "STATION": "Frankston", "TYPE": "Locker", "CAPACITY": null }, "geometry": { "type": "Point", "coordinates": [ 145.12610616699999, -38.14262492499995 ] } },
{ "type": "Feature", "properties": { "STATION": "Frankston", "TYPE": "Locker", "CAPACITY": null }, "geometry": { "type": "Point", "coordinates": [ 145.12610616699999, -38.14262492499995 ] } },
{ "type": "Feature", "properties": { "STATION": "Frankston", "TYPE": "Locker", "CAPACITY": null }, "geometry": { "type": "Point", "coordinates": [ 145.12610616699999, -38.14262492499995 ] } },
{ "type": "Feature", "properties": { "STATION": "Frankston", "TYPE": "Locker", "CAPACITY": null }, "geometry": { "type": "Point", "coordinates": [ 145.12610616699999, -38.14262492499995 ] } },
{ "type": "Feature", "properties": { "STATION": "Frankston", "TYPE": "Locker", "CAPACITY": null }, "geometry": { "type": "Point", "coordinates": [ 145.12610616699999, -38.14262492499995 ] } },
{ "type": "Feature", "properties": { "STATION": "Frankston", "TYPE": "Locker", "CAPACITY": null }, "geometry": { "type": "Point", "coordinates": [ 145.12610616699999, -38.14262492499995 ] } },
{ "type": "Feature", "properties": { "STATION": "Frankston", "TYPE": "Locker", "CAPACITY": null }, "geometry": { "type": "Point", "coordinates": [ 145.12610616699999, -38.14262492499995 ] } },
{ "type": "Feature", "properties": { "STATION": "Frankston", "TYPE": "Locker", "CAPACITY": null }, "geometry": { "type": "Point", "coordinates": [ 145.12610616699999, -38.14262492499995 ] } },
{ "type": "Feature", "properties": { "STATION": "Frankston", "TYPE": "Locker", "CAPACITY": null }, "geometry": { "type": "Point", "coordinates": [ 145.12610616699999, -38.14262492499995 ] } },
{ "type": "Feature", "properties": { "STATION": "Frankston", "TYPE": "Locker", "CAPACITY": null }, "geometry": { "type": "Point", "coordinates": [ 145.12610616699999, -38.14262492499995 ] } },
{ "type": "Feature", "properties": { "STATION": "Frankston", "TYPE": "Locker", "CAPACITY": null }, "geometry": { "type": "Point", "coordinates": [ 145.12610616699999, -38.14262492499995 ] } },
{ "type": "Feature", "properties": { "STATION": "Frankston", "TYPE": "Locker", "CAPACITY": null }, "geometry": { "type": "Point", "coordinates": [ 145.12610616699999, -38.14262492499995 ] } },
{ "type": "Feature", "properties": { "STATION": "Frankston", "TYPE": "Locker", "CAPACITY": null }, "geometry": { "type": "Point", "coordinates": [ 145.12610616699999, -38.14262492499995 ] } },
{ "type": "Feature", "properties": { "STATION": "Frankston", "TYPE": "Locker", "CAPACITY": null }, "geometry": { "type": "Point", "coordinates": [ 145.12610616699999, -38.14262492499995 ] } },
{ "type": "Feature", "properties": { "STATION": "Frankston", "TYPE": "Other", "CAPACITY": "Unknown" }, "geometry": { "type": "Point", "coordinates": [ 145.12606720700001, -38.142724490999967 ] } },
{ "type": "Feature", "properties": { "STATION": "Frankston", "TYPE": "Parkiteer", "CAPACITY": null }, "geometry": { "type": "Point", "coordinates": [ 145.12542256000006, -38.144030967999981 ] } },
{ "type": "Feature", "properties": { "STATION": "Williams Landing", "TYPE": "Parkiteer", "CAPACITY": null }, "geometry": { "type": "Point", "coordinates": [ 144.74680875000001, -37.869925776 ] } },
{ "type": "Feature", "properties": { "STATION": "Hoppers Crossing", "TYPE": "Parkiteer", "CAPACITY": null }, "geometry": { "type": "Point", "coordinates": [ 144.70087227200008, -37.882950472 ] } },
{ "type": "Feature", "properties": { "STATION": "Werribee", "TYPE": "Cages", "CAPACITY": null }, "geometry": { "type": "Point", "coordinates": [ 144.66101676900007, -37.898963279999975 ] } },
{ "type": "Feature", "properties": { "STATION": "Werribee", "TYPE": "Parkiteer", "CAPACITY": null }, "geometry": { "type": "Point", "coordinates": [ 144.66105813800004, -37.899039781 ] } },
{ "type": "Feature", "properties": { "STATION": "Werribee", "TYPE": "Other", "CAPACITY": null }, "geometry": { "type": "Point", "coordinates": [ 144.66045451399998, -37.899697624 ] } },
{ "type": "Feature", "properties": { "STATION": "Altona", "TYPE": "Locker", "CAPACITY": null }, "geometry": { "type": "Point", "coordinates": [ 144.83001784800001, -37.867290585999967 ] } },
{ "type": "Feature", "properties": { "STATION": "Altona", "TYPE": "Locker", "CAPACITY": null }, "geometry": { "type": "Point", "coordinates": [ 144.83001784800001, -37.867290585999967 ] } },
{ "type": "Feature", "properties": { "STATION": "Altona", "TYPE": "Locker", "CAPACITY": null }, "geometry": { "type": "Point", "coordinates": [ 144.83001784800001, -37.867290585999967 ] } },
{ "type": "Feature", "properties": { "STATION": "Altona", "TYPE": "Locker", "CAPACITY": null }, "geometry": { "type": "Point", "coordinates": [ 144.83001784800001, -37.867290585999967 ] } },
{ "type": "Feature", "properties": { "STATION": "Altona", "TYPE": "Locker", "CAPACITY": null }, "geometry": { "type": "Point", "coordinates": [ 144.83006851599998, -37.867295213999967 ] } },
{ "type": "Feature", "properties": { "STATION": "Altona", "TYPE": "Locker", "CAPACITY": null }, "geometry": { "type": "Point", "coordinates": [ 144.83006851599998, -37.867295213999967 ] } },
{ "type": "Feature", "properties": { "STATION": "Altona", "TYPE": "Locker", "CAPACITY": null }, "geometry": { "type": "Point", "coordinates": [ 144.83006851599998, -37.867295213999967 ] } },
{ "type": "Feature", "properties": { "STATION": "Altona", "TYPE": "Locker", "CAPACITY": null }, "geometry": { "type": "Point", "coordinates": [ 144.83006851599998, -37.867295213999967 ] } },
{ "type": "Feature", "properties": { "STATION": "Laverton", "TYPE": "Parkiteer", "CAPACITY": "Unknown" }, "geometry": { "type": "Point", "coordinates": [ 144.77183171900003, -37.863635404999968 ] } },
{ "type": "Feature", "properties": { "STATION": "Laverton", "TYPE": "Parkiteer", "CAPACITY": "Unknown" }, "geometry": { "type": "Point", "coordinates": [ 144.77194952399998, -37.864183435999962 ] } },
{ "type": "Feature", "properties": { "STATION": "Laverton", "TYPE": "Locker", "CAPACITY": null }, "geometry": { "type": "Point", "coordinates": [ 144.77254643399999, -37.863761733999979 ] } },
{ "type": "Feature", "properties": { "STATION": "Laverton", "TYPE": "Locker", "CAPACITY": null }, "geometry": { "type": "Point", "coordinates": [ 144.77254643399999, -37.863761733999979 ] } },
{ "type": "Feature", "properties": { "STATION": "Laverton", "TYPE": "Locker", "CAPACITY": null }, "geometry": { "type": "Point", "coordinates": [ 144.77254643399999, -37.863761733999979 ] } },
{ "type": "Feature", "properties": { "STATION": "Laverton", "TYPE": "Locker", "CAPACITY": null }, "geometry": { "type": "Point", "coordinates": [ 144.77254643399999, -37.863761733999979 ] } },
{ "type": "Feature", "properties": { "STATION": "Laverton", "TYPE": "Locker", "CAPACITY": null }, "geometry": { "type": "Point", "coordinates": [ 144.77254643399999, -37.863761733999979 ] } },
{ "type": "Feature", "properties": { "STATION": "Laverton", "TYPE": "Locker", "CAPACITY": null }, "geometry": { "type": "Point", "coordinates": [ 144.77254643399999, -37.863761733999979 ] } },
{ "type": "Feature", "properties": { "STATION": "Newport", "TYPE": "Locker", "CAPACITY": null }, "geometry": { "type": "Point", "coordinates": [ 144.88365905700005, -37.842914514999961 ] } },
{ "type": "Feature", "properties": { "STATION": "Newport", "TYPE": "Locker", "CAPACITY": null }, "geometry": { "type": "Point", "coordinates": [ 144.88365905700005, -37.842914514999961 ] } },
{ "type": "Feature", "properties": { "STATION": "Newport", "TYPE": "Locker", "CAPACITY": null }, "geometry": { "type": "Point", "coordinates": [ 144.88365905700005, -37.842914514999961 ] } },
{ "type": "Feature", "properties": { "STATION": "Newport", "TYPE": "Locker", "CAPACITY": null }, "geometry": { "type": "Point", "coordinates": [ 144.88365905700005, -37.842914514999961 ] } },
{ "type": "Feature", "properties": { "STATION": "Newport", "TYPE": "Locker", "CAPACITY": null }, "geometry": { "type": "Point", "coordinates": [ 144.88365905700005, -37.842914514999961 ] } },
{ "type": "Feature", "properties": { "STATION": "Newport", "TYPE": "Locker", "CAPACITY": null }, "geometry": { "type": "Point", "coordinates": [ 144.88365905700005, -37.842914514999961 ] } },
{ "type": "Feature", "properties": { "STATION": "Newport", "TYPE": "Locker", "CAPACITY": null }, "geometry": { "type": "Point", "coordinates": [ 144.88365905700005, -37.842914514999961 ] } },
{ "type": "Feature", "properties": { "STATION": "Newport", "TYPE": "Locker", "CAPACITY": null }, "geometry": { "type": "Point", "coordinates": [ 144.88365905700005, -37.842914514999961 ] } },
{ "type": "Feature", "properties": { "STATION": "Newport", "TYPE": "Parkiteer", "CAPACITY": null }, "geometry": { "type": "Point", "coordinates": [ 144.88325252499999, -37.843843500999981 ] } },
{ "type": "Feature", "properties": { "STATION": "Williamstown", "TYPE": "Locker", "CAPACITY": null }, "geometry": { "type": "Point", "coordinates": [ 144.90516671, -37.86762259 ] } },
{ "type": "Feature", "properties": { "STATION": "Williamstown", "TYPE": "Locker", "CAPACITY": null }, "geometry": { "type": "Point", "coordinates": [ 144.90516671, -37.86762259 ] } },
{ "type": "Feature", "properties": { "STATION": "Williamstown", "TYPE": "Locker", "CAPACITY": null }, "geometry": { "type": "Point", "coordinates": [ 144.90516671, -37.86762259 ] } },
{ "type": "Feature", "properties": { "STATION": "Williamstown", "TYPE": "Locker", "CAPACITY": null }, "geometry": { "type": "Point", "coordinates": [ 144.90516671, -37.86762259 ] } },
{ "type": "Feature", "properties": { "STATION": "North Williamstown", "TYPE": "Locker", "CAPACITY": null }, "geometry": { "type": "Point", "coordinates": [ 144.88882151400003, -37.857344553999951 ] } },
{ "type": "Feature", "properties": { "STATION": "North Williamstown", "TYPE": "Locker", "CAPACITY": null }, "geometry": { "type": "Point", "coordinates": [ 144.88882151400003, -37.857344553999951 ] } },
{ "type": "Feature", "properties": { "STATION": "North Williamstown", "TYPE": "Locker", "CAPACITY": null }, "geometry": { "type": "Point", "coordinates": [ 144.88882151400003, -37.857344553999951 ] } },
{ "type": "Feature", "properties": { "STATION": "North Williamstown", "TYPE": "Locker", "CAPACITY": null }, "geometry": { "type": "Point", "coordinates": [ 144.88882151400003, -37.857344553999951 ] } },
{ "type": "Feature", "properties": { "STATION": "North Williamstown", "TYPE": "Locker", "CAPACITY": null }, "geometry": { "type": "Point", "coordinates": [ 144.88882151400003, -37.857344553999951 ] } },
{ "type": "Feature", "properties": { "STATION": "North Williamstown", "TYPE": "Locker", "CAPACITY": null }, "geometry": { "type": "Point", "coordinates": [ 144.88882151400003, -37.857344553999951 ] } },
{ "type": "Feature", "properties": { "STATION": "North Williamstown", "TYPE": "Locker", "CAPACITY": null }, "geometry": { "type": "Point", "coordinates": [ 144.88882151400003, -37.857344553999951 ] } },
{ "type": "Feature", "properties": { "STATION": "North Williamstown", "TYPE": "Locker", "CAPACITY": null }, "geometry": { "type": "Point", "coordinates": [ 144.88882151400003, -37.857344553999951 ] } },
{ "type": "Feature", "properties": { "STATION": "Sunbury", "TYPE": "Parkiteer", "CAPACITY": null }, "geometry": { "type": "Point", "coordinates": [ 144.72801197700005, -37.579534541999976 ] } },
{ "type": "Feature", "properties": { "STATION": "Diggers Rest", "TYPE": "Parkiteer", "CAPACITY": null }, "geometry": { "type": "Point", "coordinates": [ 144.71968573700008, -37.626849618999984 ] } },
{ "type": "Feature", "properties": { "STATION": "Craigieburn", "TYPE": "Locker", "CAPACITY": null }, "geometry": { "type": "Point", "coordinates": [ 144.94274331100007, -37.602605649999987 ] } },
{ "type": "Feature", "properties": { "STATION": "Craigieburn", "TYPE": "Locker", "CAPACITY": null }, "geometry": { "type": "Point", "coordinates": [ 144.94274331100007, -37.602605649999987 ] } },
{ "type": "Feature", "properties": { "STATION": "Craigieburn", "TYPE": "Locker", "CAPACITY": null }, "geometry": { "type": "Point", "coordinates": [ 144.94274331100007, -37.602605649999987 ] } },
{ "type": "Feature", "properties": { "STATION": "Craigieburn", "TYPE": "Locker", "CAPACITY": null }, "geometry": { "type": "Point", "coordinates": [ 144.94274331100007, -37.602605649999987 ] } },
{ "type": "Feature", "properties": { "STATION": "Craigieburn", "TYPE": "Locker", "CAPACITY": null }, "geometry": { "type": "Point", "coordinates": [ 144.94274331100007, -37.602605649999987 ] } },
{ "type": "Feature", "properties": { "STATION": "Craigieburn", "TYPE": "Locker", "CAPACITY": null }, "geometry": { "type": "Point", "coordinates": [ 144.94274331100007, -37.602605649999987 ] } },
{ "type": "Feature", "properties": { "STATION": "Roxburgh Park", "TYPE": "Parkiteer", "CAPACITY": null }, "geometry": { "type": "Point", "coordinates": [ 144.93491915900006, -37.639286282 ] } },
{ "type": "Feature", "properties": { "STATION": "Watergardens", "TYPE": "Cages", "CAPACITY": null }, "geometry": { "type": "Point", "coordinates": [ 144.77388005500006, -37.700616816999968 ] } },
{ "type": "Feature", "properties": { "STATION": "Watergardens", "TYPE": "Hoops", "CAPACITY": null }, "geometry": { "type": "Point", "coordinates": [ 144.77347913000006, -37.701041713 ] } },
{ "type": "Feature", "properties": { "STATION": "Gowrie", "TYPE": "Locker", "CAPACITY": null }, "geometry": { "type": "Point", "coordinates": [ 144.95877932000008, -37.700430279999978 ] } },
{ "type": "Feature", "properties": { "STATION": "Gowrie", "TYPE": "Locker", "CAPACITY": null }, "geometry": { "type": "Point", "coordinates": [ 144.95877932000008, -37.700430279999978 ] } },
{ "type": "Feature", "properties": { "STATION": "Gowrie", "TYPE": "Locker", "CAPACITY": null }, "geometry": { "type": "Point", "coordinates": [ 144.95877932000008, -37.700430279999978 ] } },
{ "type": "Feature", "properties": { "STATION": "Gowrie", "TYPE": "Locker", "CAPACITY": null }, "geometry": { "type": "Point", "coordinates": [ 144.95877932000008, -37.700430279999978 ] } },
{ "type": "Feature", "properties": { "STATION": "Broadmeadows", "TYPE": "Locker", "CAPACITY": null }, "geometry": { "type": "Point", "coordinates": [ 144.919396151, -37.683215289999964 ] } },
{ "type": "Feature", "properties": { "STATION": "Broadmeadows", "TYPE": "Locker", "CAPACITY": null }, "geometry": { "type": "Point", "coordinates": [ 144.919396151, -37.683215289999964 ] } },
{ "type": "Feature", "properties": { "STATION": "Broadmeadows", "TYPE": "Locker", "CAPACITY": null }, "geometry": { "type": "Point", "coordinates": [ 144.919396151, -37.683215289999964 ] } },
{ "type": "Feature", "properties": { "STATION": "Broadmeadows", "TYPE": "Locker", "CAPACITY": null }, "geometry": { "type": "Point", "coordinates": [ 144.919396151, -37.683215289999964 ] } },
{ "type": "Feature", "properties": { "STATION": "Broadmeadows", "TYPE": "Locker", "CAPACITY": null }, "geometry": { "type": "Point", "coordinates": [ 144.919396151, -37.683215289999964 ] } },
{ "type": "Feature", "properties": { "STATION": "Broadmeadows", "TYPE": "Locker", "CAPACITY": null }, "geometry": { "type": "Point", "coordinates": [ 144.919396151, -37.683215289999964 ] } },
{ "type": "Feature", "properties": { "STATION": "Broadmeadows", "TYPE": "Locker", "CAPACITY": null }, "geometry": { "type": "Point", "coordinates": [ 144.919396151, -37.683215289999964 ] } },
{ "type": "Feature", "properties": { "STATION": "Broadmeadows", "TYPE": "Locker", "CAPACITY": null }, "geometry": { "type": "Point", "coordinates": [ 144.919396151, -37.683215289999964 ] } },
{ "type": "Feature", "properties": { "STATION": "Broadmeadows", "TYPE": "Parkiteer", "CAPACITY": null }, "geometry": { "type": "Point", "coordinates": [ 144.91873315500004, -37.683879879999949 ] } },
{ "type": "Feature", "properties": { "STATION": "Glenroy", "TYPE": "Cages", "CAPACITY": null }, "geometry": { "type": "Point", "coordinates": [ 144.91742955000007, -37.704954446999984 ] } },
{ "type": "Feature", "properties": { "STATION": "Fawkner", "TYPE": "Parkiteer", "CAPACITY": null }, "geometry": { "type": "Point", "coordinates": [ 144.96079135700009, -37.71437466399999 ] } },
{ "type": "Feature", "properties": { "STATION": "Merlynston", "TYPE": "Locker", "CAPACITY": null }, "geometry": { "type": "Point", "coordinates": [ 144.96116730200004, -37.720837230999962 ] } },
{ "type": "Feature", "properties": { "STATION": "Merlynston", "TYPE": "Locker", "CAPACITY": null }, "geometry": { "type": "Point", "coordinates": [ 144.96116730200004, -37.720837230999962 ] } },
{ "type": "Feature", "properties": { "STATION": "Merlynston", "TYPE": "Locker", "CAPACITY": null }, "geometry": { "type": "Point", "coordinates": [ 144.96116730200004, -37.720837230999962 ] } },
{ "type": "Feature", "properties": { "STATION": "Merlynston", "TYPE": "Locker", "CAPACITY": null }, "geometry": { "type": "Point", "coordinates": [ 144.96116730200004, -37.720837230999962 ] } },
{ "type": "Feature", "properties": { "STATION": "Merlynston", "TYPE": "Locker", "CAPACITY": null }, "geometry": { "type": "Point", "coordinates": [ 144.96116730200004, -37.720837230999962 ] } },
{ "type": "Feature", "properties": { "STATION": "Merlynston", "TYPE": "Locker", "CAPACITY": null }, "geometry": { "type": "Point", "coordinates": [ 144.96116730200004, -37.720837230999962 ] } },
{ "type": "Feature", "properties": { "STATION": "Merlynston", "TYPE": "Locker", "CAPACITY": null }, "geometry": { "type": "Point", "coordinates": [ 144.96116730200004, -37.720837230999962 ] } },
{ "type": "Feature", "properties": { "STATION": "Merlynston", "TYPE": "Locker", "CAPACITY": null }, "geometry": { "type": "Point", "coordinates": [ 144.96116730200004, -37.720837230999962 ] } },
{ "type": "Feature", "properties": { "STATION": "Essendon", "TYPE": "Hoops", "CAPACITY": null }, "geometry": { "type": "Point", "coordinates": [ 144.91613197900006, -37.756566201999988 ] } },
{ "type": "Feature", "properties": { "STATION": "Essendon", "TYPE": "Locker", "CAPACITY": null }, "geometry": { "type": "Point", "coordinates": [ 144.91613742900006, -37.756655497 ] } },
{ "type": "Feature", "properties": { "STATION": "Essendon", "TYPE": "Locker", "CAPACITY": null }, "geometry": { "type": "Point", "coordinates": [ 144.91613742900006, -37.756655497 ] } },
{ "type": "Feature", "properties": { "STATION": "Essendon", "TYPE": "Locker", "CAPACITY": null }, "geometry": { "type": "Point", "coordinates": [ 144.91613742900006, -37.756655497 ] } },
{ "type": "Feature", "properties": { "STATION": "Essendon", "TYPE": "Locker", "CAPACITY": null }, "geometry": { "type": "Point", "coordinates": [ 144.91613742900006, -37.756655497 ] } },
{ "type": "Feature", "properties": { "STATION": "Essendon", "TYPE": "Locker", "CAPACITY": null }, "geometry": { "type": "Point", "coordinates": [ 144.91613742900006, -37.756655497 ] } },
{ "type": "Feature", "properties": { "STATION": "Essendon", "TYPE": "Locker", "CAPACITY": null }, "geometry": { "type": "Point", "coordinates": [ 144.91613742900006, -37.756655497 ] } },
{ "type": "Feature", "properties": { "STATION": "Essendon", "TYPE": "Locker", "CAPACITY": null }, "geometry": { "type": "Point", "coordinates": [ 144.9161422330001, -37.756691080999985 ] } },
{ "type": "Feature", "properties": { "STATION": "Essendon", "TYPE": "Locker", "CAPACITY": null }, "geometry": { "type": "Point", "coordinates": [ 144.9161422330001, -37.756691080999985 ] } },
{ "type": "Feature", "properties": { "STATION": "Essendon", "TYPE": "Locker", "CAPACITY": null }, "geometry": { "type": "Point", "coordinates": [ 144.9161422330001, -37.756691080999985 ] } },
{ "type": "Feature", "properties": { "STATION": "Essendon", "TYPE": "Locker", "CAPACITY": null }, "geometry": { "type": "Point", "coordinates": [ 144.9161422330001, -37.756691080999985 ] } },
{ "type": "Feature", "properties": { "STATION": "Essendon", "TYPE": "Locker", "CAPACITY": null }, "geometry": { "type": "Point", "coordinates": [ 144.9161422330001, -37.756691080999985 ] } },
{ "type": "Feature", "properties": { "STATION": "Essendon", "TYPE": "Locker", "CAPACITY": null }, "geometry": { "type": "Point", "coordinates": [ 144.9161422330001, -37.756691080999985 ] } },
{ "type": "Feature", "properties": { "STATION": "Newmarket", "TYPE": "Locker", "CAPACITY": null }, "geometry": { "type": "Point", "coordinates": [ 144.92876311600003, -37.787003854999973 ] } },
{ "type": "Feature", "properties": { "STATION": "Newmarket", "TYPE": "Locker", "CAPACITY": null }, "geometry": { "type": "Point", "coordinates": [ 144.92876311600003, -37.787003854999973 ] } },
{ "type": "Feature", "properties": { "STATION": "Newmarket", "TYPE": "Locker", "CAPACITY": null }, "geometry": { "type": "Point", "coordinates": [ 144.92876311600003, -37.787003854999973 ] } },
{ "type": "Feature", "properties": { "STATION": "Newmarket", "TYPE": "Locker", "CAPACITY": null }, "geometry": { "type": "Point", "coordinates": [ 144.92876311600003, -37.787003854999973 ] } },
{ "type": "Feature", "properties": { "STATION": "Newmarket", "TYPE": "Locker", "CAPACITY": null }, "geometry": { "type": "Point", "coordinates": [ 144.92876311600003, -37.787003854999973 ] } },
{ "type": "Feature", "properties": { "STATION": "Newmarket", "TYPE": "Locker", "CAPACITY": null }, "geometry": { "type": "Point", "coordinates": [ 144.92876311600003, -37.787003854999973 ] } },
{ "type": "Feature", "properties": { "STATION": "Newmarket", "TYPE": "Locker", "CAPACITY": null }, "geometry": { "type": "Point", "coordinates": [ 144.92876311600003, -37.787003854999973 ] } },
{ "type": "Feature", "properties": { "STATION": "Newmarket", "TYPE": "Locker", "CAPACITY": null }, "geometry": { "type": "Point", "coordinates": [ 144.92876311600003, -37.787003854999973 ] } },
{ "type": "Feature", "properties": { "STATION": "Newmarket", "TYPE": "Locker", "CAPACITY": null }, "geometry": { "type": "Point", "coordinates": [ 144.92877073100001, -37.787039667999977 ] } },
{ "type": "Feature", "properties": { "STATION": "Newmarket", "TYPE": "Locker", "CAPACITY": null }, "geometry": { "type": "Point", "coordinates": [ 144.92877073100001, -37.787039667999977 ] } },
{ "type": "Feature", "properties": { "STATION": "Newmarket", "TYPE": "Locker", "CAPACITY": null }, "geometry": { "type": "Point", "coordinates": [ 144.92877073100001, -37.787039667999977 ] } },
{ "type": "Feature", "properties": { "STATION": "Newmarket", "TYPE": "Locker", "CAPACITY": null }, "geometry": { "type": "Point", "coordinates": [ 144.92877073100001, -37.787039667999977 ] } },
{ "type": "Feature", "properties": { "STATION": "Newmarket", "TYPE": "Locker", "CAPACITY": null }, "geometry": { "type": "Point", "coordinates": [ 144.92877073100001, -37.787039667999977 ] } },
{ "type": "Feature", "properties": { "STATION": "Newmarket", "TYPE": "Locker", "CAPACITY": null }, "geometry": { "type": "Point", "coordinates": [ 144.92877073100001, -37.787039667999977 ] } },
{ "type": "Feature", "properties": { "STATION": "Newmarket", "TYPE": "Locker", "CAPACITY": null }, "geometry": { "type": "Point", "coordinates": [ 144.92877073100001, -37.787039667999977 ] } },
{ "type": "Feature", "properties": { "STATION": "Newmarket", "TYPE": "Locker", "CAPACITY": null }, "geometry": { "type": "Point", "coordinates": [ 144.92877073100001, -37.787039667999977 ] } },
{ "type": "Feature", "properties": { "STATION": "North Melbourne", "TYPE": "Locker", "CAPACITY": null }, "geometry": { "type": "Point", "coordinates": [ 144.94119802, -37.806512926999972 ] } },
{ "type": "Feature", "properties": { "STATION": "North Melbourne", "TYPE": "Locker", "CAPACITY": null }, "geometry": { "type": "Point", "coordinates": [ 144.94119802, -37.806512926999972 ] } },
{ "type": "Feature", "properties": { "STATION": "Footscray", "TYPE": "Hoops", "CAPACITY": null }, "geometry": { "type": "Point", "coordinates": [ 144.902552378, -37.801011177999953 ] } },
{ "type": "Feature", "properties": { "STATION": "Footscray", "TYPE": "Parkiteer", "CAPACITY": null }, "geometry": { "type": "Point", "coordinates": [ 144.90152863200001, -37.801572093 ] } },
{ "type": "Feature", "properties": { "STATION": "Footscray", "TYPE": "Hoops", "CAPACITY": null }, "geometry": { "type": "Point", "coordinates": [ 144.90200229400003, -37.802029764 ] } },
{ "type": "Feature", "properties": { "STATION": "Footscray", "TYPE": "Hoops", "CAPACITY": null }, "geometry": { "type": "Point", "coordinates": [ 144.90246471600005, -37.802179816999967 ] } },
{ "type": "Feature", "properties": { "STATION": "Tottenham", "TYPE": "Hoops", "CAPACITY": null }, "geometry": { "type": "Point", "coordinates": [ 144.86248659700004, -37.799463089999961 ] } },
{ "type": "Feature", "properties": { "STATION": "West Footscray", "TYPE": "Parkiteer", "CAPACITY": null }, "geometry": { "type": "Point", "coordinates": [ 144.88401519000001, -37.801436911 ] } },
{ "type": "Feature", "properties": { "STATION": "West Footscray", "TYPE": "Hoops", "CAPACITY": null }, "geometry": { "type": "Point", "coordinates": [ 144.88411746300005, -37.80219143 ] } },
{ "type": "Feature", "properties": { "STATION": "West Footscray", "TYPE": "Parkiteer", "CAPACITY": null }, "geometry": { "type": "Point", "coordinates": [ 144.88393856499999, -37.80209379199999 ] } },
{ "type": "Feature", "properties": { "STATION": "West Footscray", "TYPE": "Hoops", "CAPACITY": null }, "geometry": { "type": "Point", "coordinates": [ 144.88427324700001, -37.80120224699999 ] } },
{ "type": "Feature", "properties": { "STATION": "Footscray", "TYPE": "Hoops", "CAPACITY": null }, "geometry": { "type": "Point", "coordinates": [ 144.90078312500009, -37.801785222999968 ] } },
{ "type": "Feature", "properties": { "STATION": "Yarraville", "TYPE": "Parkiteer", "CAPACITY": null }, "geometry": { "type": "Point", "coordinates": [ 144.88988922400006, -37.81564422699995 ] } },
{ "type": "Feature", "properties": { "STATION": "Albion", "TYPE": "Locker", "CAPACITY": null }, "geometry": { "type": "Point", "coordinates": [ 144.82384568300006, -37.776899837999963 ] } },
{ "type": "Feature", "properties": { "STATION": "Albion", "TYPE": "Locker", "CAPACITY": null }, "geometry": { "type": "Point", "coordinates": [ 144.82384568300006, -37.776899837999963 ] } },
{ "type": "Feature", "properties": { "STATION": "Albion", "TYPE": "Locker", "CAPACITY": null }, "geometry": { "type": "Point", "coordinates": [ 144.82384568300006, -37.776899837999963 ] } },
{ "type": "Feature", "properties": { "STATION": "Albion", "TYPE": "Locker", "CAPACITY": null }, "geometry": { "type": "Point", "coordinates": [ 144.82384568300006, -37.776899837999963 ] } },
{ "type": "Feature", "properties": { "STATION": "Albion", "TYPE": "Locker", "CAPACITY": null }, "geometry": { "type": "Point", "coordinates": [ 144.823810923, -37.776865678999968 ] } },
{ "type": "Feature", "properties": { "STATION": "Albion", "TYPE": "Locker", "CAPACITY": null }, "geometry": { "type": "Point", "coordinates": [ 144.823810923, -37.776865678999968 ] } },
{ "type": "Feature", "properties": { "STATION": "Albion", "TYPE": "Locker", "CAPACITY": null }, "geometry": { "type": "Point", "coordinates": [ 144.823810923, -37.776865678999968 ] } },
{ "type": "Feature", "properties": { "STATION": "Albion", "TYPE": "Locker", "CAPACITY": null }, "geometry": { "type": "Point", "coordinates": [ 144.823810923, -37.776865678999968 ] } },
{ "type": "Feature", "properties": { "STATION": "Sunshine", "TYPE": "Parkiteer", "CAPACITY": null }, "geometry": { "type": "Point", "coordinates": [ 144.83285380500001, -37.787858384 ] } },
{ "type": "Feature", "properties": { "STATION": "Sunshine", "TYPE": "Parkiteer", "CAPACITY": null }, "geometry": { "type": "Point", "coordinates": [ 144.832267667, -37.788140143999954 ] } },
{ "type": "Feature", "properties": { "STATION": "Sunshine", "TYPE": "Hoops", "CAPACITY": null }, "geometry": { "type": "Point", "coordinates": [ 144.83252554000001, -37.788630157 ] } },
{ "type": "Feature", "properties": { "STATION": "Sunshine", "TYPE": "Hoops", "CAPACITY": null }, "geometry": { "type": "Point", "coordinates": [ 144.832972326, -37.788022470999977 ] } },
{ "type": "Feature", "properties": { "STATION": "Lilydale", "TYPE": "Hoops", "CAPACITY": null }, "geometry": { "type": "Point", "coordinates": [ 145.34901268400006, -37.75466316699999 ] } },
{ "type": "Feature", "properties": { "STATION": "Lilydale", "TYPE": "Locker", "CAPACITY": null }, "geometry": { "type": "Point", "coordinates": [ 145.34769422, -37.75594823299997 ] } },
{ "type": "Feature", "properties": { "STATION": "Lilydale", "TYPE": "Locker", "CAPACITY": null }, "geometry": { "type": "Point", "coordinates": [ 145.34769422, -37.75594823299997 ] } },
{ "type": "Feature", "properties": { "STATION": "Lilydale", "TYPE": "Locker", "CAPACITY": null }, "geometry": { "type": "Point", "coordinates": [ 145.34769422, -37.75594823299997 ] } },
{ "type": "Feature", "properties": { "STATION": "Lilydale", "TYPE": "Locker", "CAPACITY": null }, "geometry": { "type": "Point", "coordinates": [ 145.34769422, -37.75594823299997 ] } },
{ "type": "Feature", "properties": { "STATION": "Lilydale", "TYPE": "Locker", "CAPACITY": null }, "geometry": { "type": "Point", "coordinates": [ 145.34769422, -37.75594823299997 ] } },
{ "type": "Feature", "properties": { "STATION": "Lilydale", "TYPE": "Locker", "CAPACITY": null }, "geometry": { "type": "Point", "coordinates": [ 145.34769422, -37.75594823299997 ] } },
{ "type": "Feature", "properties": { "STATION": "Lilydale", "TYPE": "Locker", "CAPACITY": null }, "geometry": { "type": "Point", "coordinates": [ 145.34769422, -37.75594823299997 ] } },
{ "type": "Feature", "properties": { "STATION": "Lilydale", "TYPE": "Locker", "CAPACITY": null }, "geometry": { "type": "Point", "coordinates": [ 145.34769422, -37.75594823299997 ] } },
{ "type": "Feature", "properties": { "STATION": "Lilydale", "TYPE": "Locker", "CAPACITY": null }, "geometry": { "type": "Point", "coordinates": [ 145.34769422, -37.75594823299997 ] } },
{ "type": "Feature", "properties": { "STATION": "Lilydale", "TYPE": "Locker", "CAPACITY": null }, "geometry": { "type": "Point", "coordinates": [ 145.34769422, -37.75594823299997 ] } },
{ "type": "Feature", "properties": { "STATION": "Lilydale", "TYPE": "Locker", "CAPACITY": null }, "geometry": { "type": "Point", "coordinates": [ 145.34769422, -37.75594823299997 ] } },
{ "type": "Feature", "properties": { "STATION": "Lilydale", "TYPE": "Locker", "CAPACITY": null }, "geometry": { "type": "Point", "coordinates": [ 145.34769422, -37.75594823299997 ] } },
{ "type": "Feature", "properties": { "STATION": "South Morang", "TYPE": "Cages", "CAPACITY": null }, "geometry": { "type": "Point", "coordinates": [ 145.068136396, -37.649207287999957 ] } },
{ "type": "Feature", "properties": { "STATION": "Epping", "TYPE": "Locker", "CAPACITY": null }, "geometry": { "type": "Point", "coordinates": [ 145.02895660400009, -37.652650304999952 ] } },
{ "type": "Feature", "properties": { "STATION": "Epping", "TYPE": "Locker", "CAPACITY": null }, "geometry": { "type": "Point", "coordinates": [ 145.02895660400009, -37.652650304999952 ] } },
{ "type": "Feature", "properties": { "STATION": "Epping", "TYPE": "Locker", "CAPACITY": null }, "geometry": { "type": "Point", "coordinates": [ 145.02895660400009, -37.652650304999952 ] } },
{ "type": "Feature", "properties": { "STATION": "Epping", "TYPE": "Locker", "CAPACITY": null }, "geometry": { "type": "Point", "coordinates": [ 145.02895660400009, -37.652650304999952 ] } },
{ "type": "Feature", "properties": { "STATION": "Epping", "TYPE": "Cages", "CAPACITY": null }, "geometry": { "type": "Point", "coordinates": [ 145.03111782700003, -37.652246349999984 ] } },
{ "type": "Feature", "properties": { "STATION": "Lalor", "TYPE": "Locker", "CAPACITY": null }, "geometry": { "type": "Point", "coordinates": [ 145.01714981400005, -37.66621906099999 ] } },
{ "type": "Feature", "properties": { "STATION": "Lalor", "TYPE": "Locker", "CAPACITY": null }, "geometry": { "type": "Point", "coordinates": [ 145.01714981400005, -37.66621906099999 ] } },
{ "type": "Feature", "properties": { "STATION": "Lalor", "TYPE": "Locker", "CAPACITY": null }, "geometry": { "type": "Point", "coordinates": [ 145.01714981400005, -37.66621906099999 ] } },
{ "type": "Feature", "properties": { "STATION": "Lalor", "TYPE": "Locker", "CAPACITY": null }, "geometry": { "type": "Point", "coordinates": [ 145.01714981400005, -37.66621906099999 ] } },
{ "type": "Feature", "properties": { "STATION": "Lalor", "TYPE": "Hoops", "CAPACITY": null }, "geometry": { "type": "Point", "coordinates": [ 145.0171312, -37.666254607999974 ] } },
{ "type": "Feature", "properties": { "STATION": "Eltham", "TYPE": "Cages", "CAPACITY": null }, "geometry": { "type": "Point", "coordinates": [ 145.14846032500009, -37.713259919999985 ] } },
{ "type": "Feature", "properties": { "STATION": "Eltham", "TYPE": "Locker", "CAPACITY": null }, "geometry": { "type": "Point", "coordinates": [ 145.14764117000004, -37.713759284999981 ] } },
{ "type": "Feature", "properties": { "STATION": "Eltham", "TYPE": "Locker", "CAPACITY": null }, "geometry": { "type": "Point", "coordinates": [ 145.14764117000004, -37.713759284999981 ] } },
{ "type": "Feature", "properties": { "STATION": "Eltham", "TYPE": "Locker", "CAPACITY": null }, "geometry": { "type": "Point", "coordinates": [ 145.14764117000004, -37.713759284999981 ] } },
{ "type": "Feature", "properties": { "STATION": "Eltham", "TYPE": "Locker", "CAPACITY": null }, "geometry": { "type": "Point", "coordinates": [ 145.14764117000004, -37.713759284999981 ] } },
{ "type": "Feature", "properties": { "STATION": "Eltham", "TYPE": "Locker", "CAPACITY": null }, "geometry": { "type": "Point", "coordinates": [ 145.14764117000004, -37.713759284999981 ] } },
{ "type": "Feature", "properties": { "STATION": "Eltham", "TYPE": "Locker", "CAPACITY": null }, "geometry": { "type": "Point", "coordinates": [ 145.14764117000004, -37.713759284999981 ] } },
{ "type": "Feature", "properties": { "STATION": "Eltham", "TYPE": "Locker", "CAPACITY": null }, "geometry": { "type": "Point", "coordinates": [ 145.14764117000004, -37.713759284999981 ] } },
{ "type": "Feature", "properties": { "STATION": "Eltham", "TYPE": "Locker", "CAPACITY": null }, "geometry": { "type": "Point", "coordinates": [ 145.14764117000004, -37.713759284999981 ] } },
{ "type": "Feature", "properties": { "STATION": "Mooroolbark", "TYPE": "Hoops", "CAPACITY": null }, "geometry": { "type": "Point", "coordinates": [ 145.31225292, -37.784927312999969 ] } },
{ "type": "Feature", "properties": { "STATION": "Croydon", "TYPE": "Locker", "CAPACITY": null }, "geometry": { "type": "Point", "coordinates": [ 145.28049998699998, -37.795345573999953 ] } },
{ "type": "Feature", "properties": { "STATION": "Croydon", "TYPE": "Locker", "CAPACITY": null }, "geometry": { "type": "Point", "coordinates": [ 145.28049998699998, -37.795345573999953 ] } },
{ "type": "Feature", "properties": { "STATION": "Croydon", "TYPE": "Locker", "CAPACITY": null }, "geometry": { "type": "Point", "coordinates": [ 145.28049998699998, -37.795345573999953 ] } },
{ "type": "Feature", "properties": { "STATION": "Croydon", "TYPE": "Locker", "CAPACITY": null }, "geometry": { "type": "Point", "coordinates": [ 145.28049998699998, -37.795345573999953 ] } },
{ "type": "Feature", "properties": { "STATION": "Croydon", "TYPE": "Parkiteer", "CAPACITY": null }, "geometry": { "type": "Point", "coordinates": [ 145.28038033000007, -37.795647385999985 ] } },
{ "type": "Feature", "properties": { "STATION": "Ringwood", "TYPE": "Hoops", "CAPACITY": null }, "geometry": { "type": "Point", "coordinates": [ 145.22952905, -37.815247395999961 ] } },
{ "type": "Feature", "properties": { "STATION": "Ringwood", "TYPE": "Parkiteer", "CAPACITY": null }, "geometry": { "type": "Point", "coordinates": [ 145.22947089700006, -37.815548546 ] } },
{ "type": "Feature", "properties": { "STATION": "Ringwood", "TYPE": "Hoops", "CAPACITY": null }, "geometry": { "type": "Point", "coordinates": [ 145.22981734200005, -37.815825324 ] } },
{ "type": "Feature", "properties": { "STATION": "Ringwood East", "TYPE": "Locker", "CAPACITY": null }, "geometry": { "type": "Point", "coordinates": [ 145.24988208900004, -37.811810111999989 ] } },
{ "type": "Feature", "properties": { "STATION": "Ringwood East", "TYPE": "Locker", "CAPACITY": null }, "geometry": { "type": "Point", "coordinates": [ 145.24988208900004, -37.811810111999989 ] } },
{ "type": "Feature", "properties": { "STATION": "Ringwood East", "TYPE": "Locker", "CAPACITY": null }, "geometry": { "type": "Point", "coordinates": [ 145.24988208900004, -37.811810111999989 ] } },
{ "type": "Feature", "properties": { "STATION": "Ringwood East", "TYPE": "Locker", "CAPACITY": null }, "geometry": { "type": "Point", "coordinates": [ 145.24988208900004, -37.811810111999989 ] } },
{ "type": "Feature", "properties": { "STATION": "Ringwood East", "TYPE": "Locker", "CAPACITY": null }, "geometry": { "type": "Point", "coordinates": [ 145.24988208900004, -37.811810111999989 ] } },
{ "type": "Feature", "properties": { "STATION": "Ringwood East", "TYPE": "Locker", "CAPACITY": null }, "geometry": { "type": "Point", "coordinates": [ 145.24988208900004, -37.811810111999989 ] } },
{ "type": "Feature", "properties": { "STATION": "Ringwood East", "TYPE": "Locker", "CAPACITY": null }, "geometry": { "type": "Point", "coordinates": [ 145.24988208900004, -37.811810111999989 ] } },
{ "type": "Feature", "properties": { "STATION": "Ringwood East", "TYPE": "Locker", "CAPACITY": null }, "geometry": { "type": "Point", "coordinates": [ 145.24988208900004, -37.811810111999989 ] } },
{ "type": "Feature", "properties": { "STATION": "Heatherdale", "TYPE": "Locker", "CAPACITY": null }, "geometry": { "type": "Point", "coordinates": [ 145.21300992500005, -37.818791912999984 ] } },
{ "type": "Feature", "properties": { "STATION": "Heatherdale", "TYPE": "Locker", "CAPACITY": null }, "geometry": { "type": "Point", "coordinates": [ 145.21300992500005, -37.818791912999984 ] } },
{ "type": "Feature", "properties": { "STATION": "Heatherdale", "TYPE": "Locker", "CAPACITY": null }, "geometry": { "type": "Point", "coordinates": [ 145.21300992500005, -37.818791912999984 ] } },
{ "type": "Feature", "properties": { "STATION": "Heatherdale", "TYPE": "Locker", "CAPACITY": null }, "geometry": { "type": "Point", "coordinates": [ 145.21300992500005, -37.818791912999984 ] } },
{ "type": "Feature", "properties": { "STATION": "Mitcham", "TYPE": "Locker", "CAPACITY": null }, "geometry": { "type": "Point", "coordinates": [ 145.19331354899998, -37.818166903999959 ] } },
{ "type": "Feature", "properties": { "STATION": "Mitcham", "TYPE": "Hoops", "CAPACITY": null }, "geometry": { "type": "Point", "coordinates": [ 145.19315939000001, -37.81818859599997 ] } },
{ "type": "Feature", "properties": { "STATION": "Nunawading", "TYPE": "Hoops", "CAPACITY": null }, "geometry": { "type": "Point", "coordinates": [ 145.17459072300005, -37.820615721999957 ] } },
{ "type": "Feature", "properties": { "STATION": "Nunawading", "TYPE": "Locker", "CAPACITY": null }, "geometry": { "type": "Point", "coordinates": [ 145.17503228400005, -37.820583281999973 ] } },
{ "type": "Feature", "properties": { "STATION": "Nunawading", "TYPE": "Locker", "CAPACITY": null }, "geometry": { "type": "Point", "coordinates": [ 145.17503228400005, -37.820583281999973 ] } },
{ "type": "Feature", "properties": { "STATION": "Nunawading", "TYPE": "Locker", "CAPACITY": null }, "geometry": { "type": "Point", "coordinates": [ 145.17503228400005, -37.820583281999973 ] } },
{ "type": "Feature", "properties": { "STATION": "Nunawading", "TYPE": "Locker", "CAPACITY": null }, "geometry": { "type": "Point", "coordinates": [ 145.17503228400005, -37.820583281999973 ] } },
{ "type": "Feature", "properties": { "STATION": "Nunawading", "TYPE": "Locker", "CAPACITY": null }, "geometry": { "type": "Point", "coordinates": [ 145.17503228400005, -37.820583281999973 ] } },
{ "type": "Feature", "properties": { "STATION": "Nunawading", "TYPE": "Locker", "CAPACITY": null }, "geometry": { "type": "Point", "coordinates": [ 145.17503228400005, -37.820583281999973 ] } },
{ "type": "Feature", "properties": { "STATION": "Nunawading", "TYPE": "Locker", "CAPACITY": null }, "geometry": { "type": "Point", "coordinates": [ 145.17503228400005, -37.820583281999973 ] } },
{ "type": "Feature", "properties": { "STATION": "Nunawading", "TYPE": "Locker", "CAPACITY": null }, "geometry": { "type": "Point", "coordinates": [ 145.17503228400005, -37.820583281999973 ] } },
{ "type": "Feature", "properties": { "STATION": "Nunawading", "TYPE": "Locker", "CAPACITY": null }, "geometry": { "type": "Point", "coordinates": [ 145.17503228400005, -37.820583281999973 ] } },
{ "type": "Feature", "properties": { "STATION": "Nunawading", "TYPE": "Locker", "CAPACITY": null }, "geometry": { "type": "Point", "coordinates": [ 145.17503228400005, -37.820583281999973 ] } },
{ "type": "Feature", "properties": { "STATION": "Blackburn", "TYPE": "Locker", "CAPACITY": null }, "geometry": { "type": "Point", "coordinates": [ 145.15049098500003, -37.82017288899999 ] } },
{ "type": "Feature", "properties": { "STATION": "Blackburn", "TYPE": "Locker", "CAPACITY": null }, "geometry": { "type": "Point", "coordinates": [ 145.15049098500003, -37.82017288899999 ] } },
{ "type": "Feature", "properties": { "STATION": "Camberwell", "TYPE": "Locker", "CAPACITY": null }, "geometry": { "type": "Point", "coordinates": [ 145.05797015700003, -37.826631505999956 ] } },
{ "type": "Feature", "properties": { "STATION": "Camberwell", "TYPE": "Locker", "CAPACITY": null }, "geometry": { "type": "Point", "coordinates": [ 145.05797015700003, -37.826631505999956 ] } },
{ "type": "Feature", "properties": { "STATION": "Gardiner", "TYPE": "Parkiteer", "CAPACITY": null }, "geometry": { "type": "Point", "coordinates": [ 145.05215200200007, -37.853241699999955 ] } },
{ "type": "Feature", "properties": { "STATION": "Gardiner", "TYPE": "Hoops", "CAPACITY": null }, "geometry": { "type": "Point", "coordinates": [ 145.05187825899998, -37.853291139999953 ] } },
{ "type": "Feature", "properties": { "STATION": "Mount Waverley", "TYPE": "Other", "CAPACITY": null }, "geometry": { "type": "Point", "coordinates": [ 145.12738614, -37.875197568999965 ] } },
{ "type": "Feature", "properties": { "STATION": "Mount Waverley", "TYPE": "Locker", "CAPACITY": null }, "geometry": { "type": "Point", "coordinates": [ 145.12794292500007, -37.875359867999975 ] } },
{ "type": "Feature", "properties": { "STATION": "Mount Waverley", "TYPE": "Locker", "CAPACITY": null }, "geometry": { "type": "Point", "coordinates": [ 145.12794292500007, -37.875359867999975 ] } },
{ "type": "Feature", "properties": { "STATION": "Mount Waverley", "TYPE": "Locker", "CAPACITY": null }, "geometry": { "type": "Point", "coordinates": [ 145.12794292500007, -37.875359867999975 ] } },
{ "type": "Feature", "properties": { "STATION": "Mount Waverley", "TYPE": "Locker", "CAPACITY": null }, "geometry": { "type": "Point", "coordinates": [ 145.12794292500007, -37.875359867999975 ] } },
{ "type": "Feature", "properties": { "STATION": "Mount Waverley", "TYPE": "Locker", "CAPACITY": null }, "geometry": { "type": "Point", "coordinates": [ 145.12794292500007, -37.875359867999975 ] } },
{ "type": "Feature", "properties": { "STATION": "Mount Waverley", "TYPE": "Locker", "CAPACITY": null }, "geometry": { "type": "Point", "coordinates": [ 145.12794292500007, -37.875359867999975 ] } },
{ "type": "Feature", "properties": { "STATION": "Mount Waverley", "TYPE": "Locker", "CAPACITY": null }, "geometry": { "type": "Point", "coordinates": [ 145.12794292500007, -37.875359867999975 ] } },
{ "type": "Feature", "properties": { "STATION": "Mount Waverley", "TYPE": "Locker", "CAPACITY": null }, "geometry": { "type": "Point", "coordinates": [ 145.12794292500007, -37.875359867999975 ] } },
{ "type": "Feature", "properties": { "STATION": "Jordanville", "TYPE": "Locker", "CAPACITY": null }, "geometry": { "type": "Point", "coordinates": [ 145.091290781, -37.87448761099995 ] } },
{ "type": "Feature", "properties": { "STATION": "Jordanville", "TYPE": "Locker", "CAPACITY": null }, "geometry": { "type": "Point", "coordinates": [ 145.091290781, -37.87448761099995 ] } },
{ "type": "Feature", "properties": { "STATION": "Jordanville", "TYPE": "Locker", "CAPACITY": null }, "geometry": { "type": "Point", "coordinates": [ 145.091290781, -37.87448761099995 ] } },
{ "type": "Feature", "properties": { "STATION": "Jordanville", "TYPE": "Locker", "CAPACITY": null }, "geometry": { "type": "Point", "coordinates": [ 145.091290781, -37.87448761099995 ] } },
{ "type": "Feature", "properties": { "STATION": "Jordanville", "TYPE": "Locker", "CAPACITY": null }, "geometry": { "type": "Point", "coordinates": [ 145.091290781, -37.87448761099995 ] } },
{ "type": "Feature", "properties": { "STATION": "Jordanville", "TYPE": "Locker", "CAPACITY": null }, "geometry": { "type": "Point", "coordinates": [ 145.091290781, -37.87448761099995 ] } },
{ "type": "Feature", "properties": { "STATION": "Jordanville", "TYPE": "Locker", "CAPACITY": null }, "geometry": { "type": "Point", "coordinates": [ 145.091290781, -37.87448761099995 ] } },
{ "type": "Feature", "properties": { "STATION": "Jordanville", "TYPE": "Locker", "CAPACITY": null }, "geometry": { "type": "Point", "coordinates": [ 145.091290781, -37.87448761099995 ] } },
{ "type": "Feature", "properties": { "STATION": "Jordanville", "TYPE": "Locker", "CAPACITY": null }, "geometry": { "type": "Point", "coordinates": [ 145.091290781, -37.87448761099995 ] } },
{ "type": "Feature", "properties": { "STATION": "Jordanville", "TYPE": "Locker", "CAPACITY": null }, "geometry": { "type": "Point", "coordinates": [ 145.091290781, -37.87448761099995 ] } },
{ "type": "Feature", "properties": { "STATION": "Holmesglen", "TYPE": "Locker", "CAPACITY": null }, "geometry": { "type": "Point", "coordinates": [ 145.09001090800007, -37.874580102999971 ] } },
{ "type": "Feature", "properties": { "STATION": "Holmesglen", "TYPE": "Locker", "CAPACITY": null }, "geometry": { "type": "Point", "coordinates": [ 145.09001090800007, -37.874580102999971 ] } },
{ "type": "Feature", "properties": { "STATION": "Holmesglen", "TYPE": "Locker", "CAPACITY": null }, "geometry": { "type": "Point", "coordinates": [ 145.09001090800007, -37.874580102999971 ] } },
{ "type": "Feature", "properties": { "STATION": "Holmesglen", "TYPE": "Locker", "CAPACITY": null }, "geometry": { "type": "Point", "coordinates": [ 145.09001090800007, -37.874580102999971 ] } },
{ "type": "Feature", "properties": { "STATION": "Holmesglen", "TYPE": "Locker", "CAPACITY": null }, "geometry": { "type": "Point", "coordinates": [ 145.09001090800007, -37.874580102999971 ] } },
{ "type": "Feature", "properties": { "STATION": "Holmesglen", "TYPE": "Locker", "CAPACITY": null }, "geometry": { "type": "Point", "coordinates": [ 145.09001090800007, -37.874580102999971 ] } },
{ "type": "Feature", "properties": { "STATION": "Holmesglen", "TYPE": "Locker", "CAPACITY": null }, "geometry": { "type": "Point", "coordinates": [ 145.09001090800007, -37.874580102999971 ] } },
{ "type": "Feature", "properties": { "STATION": "Holmesglen", "TYPE": "Locker", "CAPACITY": null }, "geometry": { "type": "Point", "coordinates": [ 145.09001090800007, -37.874580102999971 ] } },
{ "type": "Feature", "properties": { "STATION": "Holmesglen", "TYPE": "Locker", "CAPACITY": null }, "geometry": { "type": "Point", "coordinates": [ 145.09001090800007, -37.874580102999971 ] } },
{ "type": "Feature", "properties": { "STATION": "Holmesglen", "TYPE": "Locker", "CAPACITY": null }, "geometry": { "type": "Point", "coordinates": [ 145.09001090800007, -37.874580102999971 ] } },
{ "type": "Feature", "properties": { "STATION": "Glen Iris", "TYPE": "Locker", "CAPACITY": null }, "geometry": { "type": "Point", "coordinates": [ 145.05845171600004, -37.85962096899999 ] } },
{ "type": "Feature", "properties": { "STATION": "Glen Iris", "TYPE": "Locker", "CAPACITY": null }, "geometry": { "type": "Point", "coordinates": [ 145.05845171600004, -37.85962096899999 ] } },
{ "type": "Feature", "properties": { "STATION": "Glen Iris", "TYPE": "Locker", "CAPACITY": null }, "geometry": { "type": "Point", "coordinates": [ 145.05845171600004, -37.85962096899999 ] } },
{ "type": "Feature", "properties": { "STATION": "Glen Iris", "TYPE": "Locker", "CAPACITY": null }, "geometry": { "type": "Point", "coordinates": [ 145.05845171600004, -37.85962096899999 ] } },
{ "type": "Feature", "properties": { "STATION": "Glen Iris", "TYPE": "Locker", "CAPACITY": null }, "geometry": { "type": "Point", "coordinates": [ 145.05845171600004, -37.85962096899999 ] } },
{ "type": "Feature", "properties": { "STATION": "Glen Iris", "TYPE": "Locker", "CAPACITY": null }, "geometry": { "type": "Point", "coordinates": [ 145.05845171600004, -37.85962096899999 ] } },
{ "type": "Feature", "properties": { "STATION": "Ashburton", "TYPE": "Locker", "CAPACITY": null }, "geometry": { "type": "Point", "coordinates": [ 145.08149959299999, -37.86182503699996 ] } },
{ "type": "Feature", "properties": { "STATION": "Ashburton", "TYPE": "Locker", "CAPACITY": null }, "geometry": { "type": "Point", "coordinates": [ 145.08149959299999, -37.86182503699996 ] } },
{ "type": "Feature", "properties": { "STATION": "Ashburton", "TYPE": "Locker", "CAPACITY": null }, "geometry": { "type": "Point", "coordinates": [ 145.08149959299999, -37.86182503699996 ] } },
{ "type": "Feature", "properties": { "STATION": "Ashburton", "TYPE": "Hoops", "CAPACITY": null }, "geometry": { "type": "Point", "coordinates": [ 145.08145693800009, -37.861825332999956 ] } },
{ "type": "Feature", "properties": { "STATION": "Ashburton", "TYPE": "Locker", "CAPACITY": null }, "geometry": { "type": "Point", "coordinates": [ 145.08161235700004, -37.861763354 ] } },
{ "type": "Feature", "properties": { "STATION": "Ashburton", "TYPE": "Locker", "CAPACITY": null }, "geometry": { "type": "Point", "coordinates": [ 145.08161235700004, -37.861763354 ] } },
{ "type": "Feature", "properties": { "STATION": "Ashburton", "TYPE": "Locker", "CAPACITY": null }, "geometry": { "type": "Point", "coordinates": [ 145.08161235700004, -37.861763354 ] } },
{ "type": "Feature", "properties": { "STATION": "East Malvern", "TYPE": "Locker", "CAPACITY": null }, "geometry": { "type": "Point", "coordinates": [ 145.06910793700001, -37.87708698199998 ] } },
{ "type": "Feature", "properties": { "STATION": "East Malvern", "TYPE": "Locker", "CAPACITY": null }, "geometry": { "type": "Point", "coordinates": [ 145.06910793700001, -37.87708698199998 ] } },
{ "type": "Feature", "properties": { "STATION": "East Malvern", "TYPE": "Locker", "CAPACITY": null }, "geometry": { "type": "Point", "coordinates": [ 145.06910793700001, -37.87708698199998 ] } },
{ "type": "Feature", "properties": { "STATION": "East Malvern", "TYPE": "Locker", "CAPACITY": null }, "geometry": { "type": "Point", "coordinates": [ 145.06910793700001, -37.87708698199998 ] } },
{ "type": "Feature", "properties": { "STATION": "East Malvern", "TYPE": "Locker", "CAPACITY": null }, "geometry": { "type": "Point", "coordinates": [ 145.06910793700001, -37.87708698199998 ] } },
{ "type": "Feature", "properties": { "STATION": "East Malvern", "TYPE": "Locker", "CAPACITY": null }, "geometry": { "type": "Point", "coordinates": [ 145.06910793700001, -37.87708698199998 ] } },
{ "type": "Feature", "properties": { "STATION": "East Malvern", "TYPE": "Parkiteer", "CAPACITY": null }, "geometry": { "type": "Point", "coordinates": [ 145.06922626100004, -37.877064956999959 ] } },
{ "type": "Feature", "properties": { "STATION": "Hughesdale", "TYPE": "Locker", "CAPACITY": null }, "geometry": { "type": "Point", "coordinates": [ 145.07623679100004, -37.894115281999973 ] } },
{ "type": "Feature", "properties": { "STATION": "Hughesdale", "TYPE": "Locker", "CAPACITY": null }, "geometry": { "type": "Point", "coordinates": [ 145.07623679100004, -37.894115281999973 ] } },
{ "type": "Feature", "properties": { "STATION": "Hughesdale", "TYPE": "Locker", "CAPACITY": null }, "geometry": { "type": "Point", "coordinates": [ 145.07623679100004, -37.894115281999973 ] } },
{ "type": "Feature", "properties": { "STATION": "Hughesdale", "TYPE": "Locker", "CAPACITY": null }, "geometry": { "type": "Point", "coordinates": [ 145.07623679100004, -37.894115281999973 ] } },
{ "type": "Feature", "properties": { "STATION": "Hughesdale", "TYPE": "Locker", "CAPACITY": null }, "geometry": { "type": "Point", "coordinates": [ 145.07623679100004, -37.894115281999973 ] } },
{ "type": "Feature", "properties": { "STATION": "Hughesdale", "TYPE": "Locker", "CAPACITY": null }, "geometry": { "type": "Point", "coordinates": [ 145.07623679100004, -37.894115281999973 ] } },
{ "type": "Feature", "properties": { "STATION": "Carnegie", "TYPE": "Locker", "CAPACITY": null }, "geometry": { "type": "Point", "coordinates": [ 145.05855378500007, -37.886163066 ] } },
{ "type": "Feature", "properties": { "STATION": "Carnegie", "TYPE": "Locker", "CAPACITY": null }, "geometry": { "type": "Point", "coordinates": [ 145.05855378500007, -37.886163066 ] } },
{ "type": "Feature", "properties": { "STATION": "Carnegie", "TYPE": "Locker", "CAPACITY": null }, "geometry": { "type": "Point", "coordinates": [ 145.05855378500007, -37.886163066 ] } },
{ "type": "Feature", "properties": { "STATION": "Carnegie", "TYPE": "Locker", "CAPACITY": null }, "geometry": { "type": "Point", "coordinates": [ 145.05855378500007, -37.886163066 ] } },
{ "type": "Feature", "properties": { "STATION": "Carnegie", "TYPE": "Locker", "CAPACITY": null }, "geometry": { "type": "Point", "coordinates": [ 145.05855378500007, -37.886163066 ] } },
{ "type": "Feature", "properties": { "STATION": "Carnegie", "TYPE": "Locker", "CAPACITY": null }, "geometry": { "type": "Point", "coordinates": [ 145.05855378500007, -37.886163066 ] } },
{ "type": "Feature", "properties": { "STATION": "Carnegie", "TYPE": "Locker", "CAPACITY": null }, "geometry": { "type": "Point", "coordinates": [ 145.05866281900001, -37.886163422999971 ] } },
{ "type": "Feature", "properties": { "STATION": "Carnegie", "TYPE": "Locker", "CAPACITY": null }, "geometry": { "type": "Point", "coordinates": [ 145.05866281900001, -37.886163422999971 ] } },
{ "type": "Feature", "properties": { "STATION": "Carnegie", "TYPE": "Locker", "CAPACITY": null }, "geometry": { "type": "Point", "coordinates": [ 145.05866281900001, -37.886163422999971 ] } },
{ "type": "Feature", "properties": { "STATION": "Carnegie", "TYPE": "Locker", "CAPACITY": null }, "geometry": { "type": "Point", "coordinates": [ 145.05866281900001, -37.886163422999971 ] } },
{ "type": "Feature", "properties": { "STATION": "Ormond", "TYPE": "Parkiteer", "CAPACITY": null }, "geometry": { "type": "Point", "coordinates": [ 145.03969116799999, -37.903603326 ] } },
{ "type": "Feature", "properties": { "STATION": "Mckinnon", "TYPE": "Parkiteer", "CAPACITY": null }, "geometry": { "type": "Point", "coordinates": [ 145.03834736700003, -37.910962020999989 ] } },
{ "type": "Feature", "properties": { "STATION": "Oakleigh", "TYPE": "Parkiteer", "CAPACITY": null }, "geometry": { "type": "Point", "coordinates": [ 145.08856222200006, -37.900298407999969 ] } },
{ "type": "Feature", "properties": { "STATION": "Oakleigh", "TYPE": "Hoops", "CAPACITY": null }, "geometry": { "type": "Point", "coordinates": [ 145.08832514300002, -37.900400064 ] } },
{ "type": "Feature", "properties": { "STATION": "Oakleigh", "TYPE": "Locker", "CAPACITY": null }, "geometry": { "type": "Point", "coordinates": [ 145.08825256500006, -37.900142460999973 ] } },
{ "type": "Feature", "properties": { "STATION": "Oakleigh", "TYPE": "Locker", "CAPACITY": null }, "geometry": { "type": "Point", "coordinates": [ 145.08825256500006, -37.900142460999973 ] } },
{ "type": "Feature", "properties": { "STATION": "Oakleigh", "TYPE": "Locker", "CAPACITY": null }, "geometry": { "type": "Point", "coordinates": [ 145.08825256500006, -37.900142460999973 ] } },
{ "type": "Feature", "properties": { "STATION": "Oakleigh", "TYPE": "Locker", "CAPACITY": null }, "geometry": { "type": "Point", "coordinates": [ 145.08825256500006, -37.900142460999973 ] } },
{ "type": "Feature", "properties": { "STATION": "Oakleigh", "TYPE": "Locker", "CAPACITY": null }, "geometry": { "type": "Point", "coordinates": [ 145.08825256500006, -37.900142460999973 ] } },
{ "type": "Feature", "properties": { "STATION": "Oakleigh", "TYPE": "Locker", "CAPACITY": null }, "geometry": { "type": "Point", "coordinates": [ 145.08825256500006, -37.900142460999973 ] } },
{ "type": "Feature", "properties": { "STATION": "Oakleigh", "TYPE": "Locker", "CAPACITY": null }, "geometry": { "type": "Point", "coordinates": [ 145.08825256500006, -37.900142460999973 ] } },
{ "type": "Feature", "properties": { "STATION": "Oakleigh", "TYPE": "Locker", "CAPACITY": null }, "geometry": { "type": "Point", "coordinates": [ 145.08825256500006, -37.900142460999973 ] } },
{ "type": "Feature", "properties": { "STATION": "Oakleigh", "TYPE": "Locker", "CAPACITY": null }, "geometry": { "type": "Point", "coordinates": [ 145.08825256500006, -37.900142460999973 ] } },
{ "type": "Feature", "properties": { "STATION": "Oakleigh", "TYPE": "Locker", "CAPACITY": null }, "geometry": { "type": "Point", "coordinates": [ 145.08825256500006, -37.900142460999973 ] } },
{ "type": "Feature", "properties": { "STATION": "Oakleigh", "TYPE": "Locker", "CAPACITY": null }, "geometry": { "type": "Point", "coordinates": [ 145.08825256500006, -37.900142460999973 ] } },
{ "type": "Feature", "properties": { "STATION": "Oakleigh", "TYPE": "Locker", "CAPACITY": null }, "geometry": { "type": "Point", "coordinates": [ 145.08825256500006, -37.900142460999973 ] } },
{ "type": "Feature", "properties": { "STATION": "Oakleigh", "TYPE": "Locker", "CAPACITY": null }, "geometry": { "type": "Point", "coordinates": [ 145.08825256500006, -37.900142460999973 ] } },
{ "type": "Feature", "properties": { "STATION": "Oakleigh", "TYPE": "Locker", "CAPACITY": null }, "geometry": { "type": "Point", "coordinates": [ 145.08825256500006, -37.900142460999973 ] } },
{ "type": "Feature", "properties": { "STATION": "Oakleigh", "TYPE": "Locker", "CAPACITY": null }, "geometry": { "type": "Point", "coordinates": [ 145.08825256500006, -37.900142460999973 ] } },
{ "type": "Feature", "properties": { "STATION": "Oakleigh", "TYPE": "Locker", "CAPACITY": null }, "geometry": { "type": "Point", "coordinates": [ 145.08825256500006, -37.900142460999973 ] } },
{ "type": "Feature", "properties": { "STATION": "Bentleigh", "TYPE": "Parkiteer", "CAPACITY": null }, "geometry": { "type": "Point", "coordinates": [ 145.03660379100006, -37.917744773999971 ] } },
{ "type": "Feature", "properties": { "STATION": "Huntingdale", "TYPE": "Locker", "CAPACITY": null }, "geometry": { "type": "Point", "coordinates": [ 145.10274346000006, -37.911325223 ] } },
{ "type": "Feature", "properties": { "STATION": "Huntingdale", "TYPE": "Locker", "CAPACITY": null }, "geometry": { "type": "Point", "coordinates": [ 145.10274346000006, -37.911325223 ] } },
{ "type": "Feature", "properties": { "STATION": "Huntingdale", "TYPE": "Locker", "CAPACITY": null }, "geometry": { "type": "Point", "coordinates": [ 145.10274346000006, -37.911325223 ] } },
{ "type": "Feature", "properties": { "STATION": "Huntingdale", "TYPE": "Locker", "CAPACITY": null }, "geometry": { "type": "Point", "coordinates": [ 145.10274346000006, -37.911325223 ] } },
{ "type": "Feature", "properties": { "STATION": "Huntingdale", "TYPE": "Locker", "CAPACITY": null }, "geometry": { "type": "Point", "coordinates": [ 145.10274346000006, -37.911325223 ] } },
{ "type": "Feature", "properties": { "STATION": "Huntingdale", "TYPE": "Locker", "CAPACITY": null }, "geometry": { "type": "Point", "coordinates": [ 145.10274346000006, -37.911325223 ] } },
{ "type": "Feature", "properties": { "STATION": "Huntingdale", "TYPE": "Locker", "CAPACITY": null }, "geometry": { "type": "Point", "coordinates": [ 145.10274346000006, -37.911325223 ] } },
{ "type": "Feature", "properties": { "STATION": "Huntingdale", "TYPE": "Locker", "CAPACITY": null }, "geometry": { "type": "Point", "coordinates": [ 145.10274346000006, -37.911325223 ] } },
{ "type": "Feature", "properties": { "STATION": "Huntingdale", "TYPE": "Locker", "CAPACITY": null }, "geometry": { "type": "Point", "coordinates": [ 145.10274346000006, -37.911325223 ] } },
{ "type": "Feature", "properties": { "STATION": "Huntingdale", "TYPE": "Locker", "CAPACITY": null }, "geometry": { "type": "Point", "coordinates": [ 145.10274346000006, -37.911325223 ] } },
{ "type": "Feature", "properties": { "STATION": "Huntingdale", "TYPE": "Locker", "CAPACITY": null }, "geometry": { "type": "Point", "coordinates": [ 145.10274346000006, -37.911325223 ] } },
{ "type": "Feature", "properties": { "STATION": "Huntingdale", "TYPE": "Locker", "CAPACITY": null }, "geometry": { "type": "Point", "coordinates": [ 145.10274346000006, -37.911325223 ] } },
{ "type": "Feature", "properties": { "STATION": "Huntingdale", "TYPE": "Locker", "CAPACITY": null }, "geometry": { "type": "Point", "coordinates": [ 145.10274346000006, -37.911325223 ] } },
{ "type": "Feature", "properties": { "STATION": "Huntingdale", "TYPE": "Locker", "CAPACITY": null }, "geometry": { "type": "Point", "coordinates": [ 145.10274346000006, -37.911325223 ] } },
{ "type": "Feature", "properties": { "STATION": "Clayton", "TYPE": "Locker", "CAPACITY": null }, "geometry": { "type": "Point", "coordinates": [ 145.12011248400006, -37.92461247599999 ] } },
{ "type": "Feature", "properties": { "STATION": "Clayton", "TYPE": "Locker", "CAPACITY": null }, "geometry": { "type": "Point", "coordinates": [ 145.12011248400006, -37.92461247599999 ] } },
{ "type": "Feature", "properties": { "STATION": "Clayton", "TYPE": "Locker", "CAPACITY": null }, "geometry": { "type": "Point", "coordinates": [ 145.12011248400006, -37.92461247599999 ] } },
{ "type": "Feature", "properties": { "STATION": "Clayton", "TYPE": "Locker", "CAPACITY": null }, "geometry": { "type": "Point", "coordinates": [ 145.12011248400006, -37.92461247599999 ] } },
{ "type": "Feature", "properties": { "STATION": "Clayton", "TYPE": "Locker", "CAPACITY": null }, "geometry": { "type": "Point", "coordinates": [ 145.12011248400006, -37.92461247599999 ] } },
{ "type": "Feature", "properties": { "STATION": "Clayton", "TYPE": "Locker", "CAPACITY": null }, "geometry": { "type": "Point", "coordinates": [ 145.12011248400006, -37.92461247599999 ] } },
{ "type": "Feature", "properties": { "STATION": "Clayton", "TYPE": "Locker", "CAPACITY": null }, "geometry": { "type": "Point", "coordinates": [ 145.12011248400006, -37.92461247599999 ] } },
{ "type": "Feature", "properties": { "STATION": "Clayton", "TYPE": "Locker", "CAPACITY": null }, "geometry": { "type": "Point", "coordinates": [ 145.12011248400006, -37.92461247599999 ] } },
{ "type": "Feature", "properties": { "STATION": "Westall", "TYPE": "Hoops", "CAPACITY": null }, "geometry": { "type": "Point", "coordinates": [ 145.13849440300001, -37.93790656699997 ] } },
{ "type": "Feature", "properties": { "STATION": "Westall", "TYPE": "Locker", "CAPACITY": null }, "geometry": { "type": "Point", "coordinates": [ 145.13850003800007, -37.937991890999967 ] } },
{ "type": "Feature", "properties": { "STATION": "Westall", "TYPE": "Locker", "CAPACITY": null }, "geometry": { "type": "Point", "coordinates": [ 145.13850003800007, -37.937991890999967 ] } },
{ "type": "Feature", "properties": { "STATION": "Westall", "TYPE": "Locker", "CAPACITY": null }, "geometry": { "type": "Point", "coordinates": [ 145.13850003800007, -37.937991890999967 ] } },
{ "type": "Feature", "properties": { "STATION": "Westall", "TYPE": "Locker", "CAPACITY": null }, "geometry": { "type": "Point", "coordinates": [ 145.13850003800007, -37.937991890999967 ] } },
{ "type": "Feature", "properties": { "STATION": "Westall", "TYPE": "Locker", "CAPACITY": null }, "geometry": { "type": "Point", "coordinates": [ 145.13850003800007, -37.937991890999967 ] } },
{ "type": "Feature", "properties": { "STATION": "Westall", "TYPE": "Locker", "CAPACITY": null }, "geometry": { "type": "Point", "coordinates": [ 145.13850003800007, -37.937991890999967 ] } },
{ "type": "Feature", "properties": { "STATION": "Westall", "TYPE": "Locker", "CAPACITY": null }, "geometry": { "type": "Point", "coordinates": [ 145.13850003800007, -37.937991890999967 ] } },
{ "type": "Feature", "properties": { "STATION": "Westall", "TYPE": "Locker", "CAPACITY": null }, "geometry": { "type": "Point", "coordinates": [ 145.13850003800007, -37.937991890999967 ] } },
{ "type": "Feature", "properties": { "STATION": "Westall", "TYPE": "Locker", "CAPACITY": null }, "geometry": { "type": "Point", "coordinates": [ 145.13855839400006, -37.938036692999958 ] } },
{ "type": "Feature", "properties": { "STATION": "Westall", "TYPE": "Locker", "CAPACITY": null }, "geometry": { "type": "Point", "coordinates": [ 145.13855839400006, -37.938036692999958 ] } },
{ "type": "Feature", "properties": { "STATION": "Westall", "TYPE": "Locker", "CAPACITY": null }, "geometry": { "type": "Point", "coordinates": [ 145.13855839400006, -37.938036692999958 ] } },
{ "type": "Feature", "properties": { "STATION": "Westall", "TYPE": "Locker", "CAPACITY": null }, "geometry": { "type": "Point", "coordinates": [ 145.13855839400006, -37.938036692999958 ] } },
{ "type": "Feature", "properties": { "STATION": "Westall", "TYPE": "Locker", "CAPACITY": null }, "geometry": { "type": "Point", "coordinates": [ 145.13855839400006, -37.938036692999958 ] } },
{ "type": "Feature", "properties": { "STATION": "Westall", "TYPE": "Locker", "CAPACITY": null }, "geometry": { "type": "Point", "coordinates": [ 145.13855839400006, -37.938036692999958 ] } },
{ "type": "Feature", "properties": { "STATION": "Westall", "TYPE": "Locker", "CAPACITY": null }, "geometry": { "type": "Point", "coordinates": [ 145.13855839400006, -37.938036692999958 ] } },
{ "type": "Feature", "properties": { "STATION": "Westall", "TYPE": "Locker", "CAPACITY": null }, "geometry": { "type": "Point", "coordinates": [ 145.13855839400006, -37.938036692999958 ] } },
{ "type": "Feature", "properties": { "STATION": "Westall", "TYPE": "Hoops", "CAPACITY": null }, "geometry": { "type": "Point", "coordinates": [ 145.13791987100001, -37.938297876999968 ] } },
{ "type": "Feature", "properties": { "STATION": "Westall", "TYPE": "Parkiteer", "CAPACITY": null }, "geometry": { "type": "Point", "coordinates": [ 145.13889601400001, -37.93882419199997 ] } },
{ "type": "Feature", "properties": { "STATION": "Westall", "TYPE": "Hoops", "CAPACITY": null }, "geometry": { "type": "Point", "coordinates": [ 145.14096296800005, -37.939155828999958 ] } },
{ "type": "Feature", "properties": { "STATION": "Moorabbin", "TYPE": "Locker", "CAPACITY": null }, "geometry": { "type": "Point", "coordinates": [ 145.03644738000003, -37.935053733999951 ] } },
{ "type": "Feature", "properties": { "STATION": "Moorabbin", "TYPE": "Locker", "CAPACITY": null }, "geometry": { "type": "Point", "coordinates": [ 145.03644738000003, -37.935053733999951 ] } },
{ "type": "Feature", "properties": { "STATION": "Moorabbin", "TYPE": "Locker", "CAPACITY": null }, "geometry": { "type": "Point", "coordinates": [ 145.03644738000003, -37.935053733999951 ] } },
{ "type": "Feature", "properties": { "STATION": "Moorabbin", "TYPE": "Locker", "CAPACITY": null }, "geometry": { "type": "Point", "coordinates": [ 145.03644738000003, -37.935053733999951 ] } },
{ "type": "Feature", "properties": { "STATION": "Moorabbin", "TYPE": "Locker", "CAPACITY": null }, "geometry": { "type": "Point", "coordinates": [ 145.03644738000003, -37.935053733999951 ] } },
{ "type": "Feature", "properties": { "STATION": "Moorabbin", "TYPE": "Locker", "CAPACITY": null }, "geometry": { "type": "Point", "coordinates": [ 145.03644738000003, -37.935053733999951 ] } },
{ "type": "Feature", "properties": { "STATION": "Moorabbin", "TYPE": "Locker", "CAPACITY": null }, "geometry": { "type": "Point", "coordinates": [ 145.03644738000003, -37.935053733999951 ] } },
{ "type": "Feature", "properties": { "STATION": "Moorabbin", "TYPE": "Locker", "CAPACITY": null }, "geometry": { "type": "Point", "coordinates": [ 145.03644738000003, -37.935053733999951 ] } },
{ "type": "Feature", "properties": { "STATION": "Moorabbin", "TYPE": "Locker", "CAPACITY": null }, "geometry": { "type": "Point", "coordinates": [ 145.03644738000003, -37.935053733999951 ] } },
{ "type": "Feature", "properties": { "STATION": "Moorabbin", "TYPE": "Locker", "CAPACITY": null }, "geometry": { "type": "Point", "coordinates": [ 145.03644738000003, -37.935053733999951 ] } },
{ "type": "Feature", "properties": { "STATION": "Moorabbin", "TYPE": "Locker", "CAPACITY": null }, "geometry": { "type": "Point", "coordinates": [ 145.03644738000003, -37.935053733999951 ] } },
{ "type": "Feature", "properties": { "STATION": "Moorabbin", "TYPE": "Locker", "CAPACITY": null }, "geometry": { "type": "Point", "coordinates": [ 145.03644738000003, -37.935053733999951 ] } },
{ "type": "Feature", "properties": { "STATION": "Moorabbin", "TYPE": "Locker", "CAPACITY": null }, "geometry": { "type": "Point", "coordinates": [ 145.03644738000003, -37.935053733999951 ] } },
{ "type": "Feature", "properties": { "STATION": "Moorabbin", "TYPE": "Locker", "CAPACITY": null }, "geometry": { "type": "Point", "coordinates": [ 145.036443781, -37.935083225999961 ] } },
{ "type": "Feature", "properties": { "STATION": "Highett", "TYPE": "Parkiteer", "CAPACITY": null },